X,Y,OBJECTID,FID_,Parcel_Num,Property_C,Property_S,Inventory,Zoned_As,Address1,County,City,Longitude,Latitude,Council_Di,Square_Foo,Business_I
-118.470975400804534,34.224936280148491,1001,0,2654019900,Not Classified,Owned,General Services,RA-1,MARKLEIN AVE/CHASE ST,LOS ANGELES,UNKNOWN,-118.4709754,34.22493628,6,455.7855502,None
-118.462163599807155,34.226020109767944,1002,0,2654023900,Not Classified,Owned,General Services,R1-1,WISNER AVE/CHASE ST,LOS ANGELES,UNKNOWN,-118.4621636,34.22602011,6,110.8292499, 
-118.468157599557273,34.217429159691378,1003,0,2654037902,OPLA,Owned,General Services,R3-1,LANARK ST/LANGDON AVE,Los Angeles,LOS ANGELES,-118.4681576,34.21742916,6,3171.218437,None
-118.465992300396437,34.256139099628236,1004,0,2660015901,Not Classified,Owned,General Services,P-1,HALBRENT AVE/TUBA ST,LOS ANGELES,UNKNOWN,-118.4659923,34.2561391,7,244.4978,None
-118.473117400361858,34.273087009833034,1005,0,2662009900,Not Classified,Owned,General Services,PF-1,LAHEY ST/BLUCHER AVE,LOS ANGELES,UNKNOWN,-118.4731174,34.27308701,12,237.59445,None
-118.476738499390677,34.255521490235431,1006,0,2669001900,Not Classified,Owned,General Services,A2-1,HASKELL AVE/LEMARSH ST,LOS ANGELES,UNKNOWN,-118.4767385,34.25552149,12,309.4564993, 
-118.483985399230491,34.233997569725346,1007,0,2672001900,Not Classified,Owned,General Services,(T)RS-1,COLLETT AVE/RAYEN ST,LOS ANGELES,UNKNOWN,-118.4839854,34.23399757,12,386.0041495,None
-118.480808299717381,34.225217719345807,1008,0,2673002901,Not Classified,Owned,General Services,(T)RS-1,GLORIA AVE/MALDEN ST,LOS ANGELES,UNKNOWN,-118.4808083,34.22521772,12,928.9314518, 
-118.490918999936895,34.253871999530837,1009,0,2678016900,OPLA,Owned,General Services,RS-1,MAYALL ST/ODESSA AVE,Los Angeles,LOS ANGELES,-118.490919,34.253872,12,1070.823914, 
-118.491533000230234,34.253876000142448,1010,0,2678020901,OPLA,Owned,General Services,RS-1,MAYALL ST/ODESSA AVE,Los Angeles,LOS ANGELES,-118.491533,34.253876,12,2296.0692,None
-118.500711900463415,34.251961059788059,1011,0,2685005900,Not Classified,Owned,General Services,A2-1,VINTAGE ST/MCLENNAN AVE,LOS ANGELES,UNKNOWN,-118.5007119,34.25196106,12,958.6352497,None
-118.487340399305836,34.233843710182711,1012,0,2688006900,Not Classified,Owned,General Services,RS-1,VALJEAN AVE/RAYEN ST,LOS ANGELES,UNKNOWN,-118.4873404,34.23384371,12,59.90980008,None
-118.495669500466775,34.227559990444306,1013,0,2689021900,Not Classified,Owned,General Services,RA-1,BRYANT ST/RUBIO AVE,LOS ANGELES,UNKNOWN,-118.4956695,34.22755999,12,1235.968849, 
-118.507022200618337,34.223948879863542,1014,0,2690018901,Not Classified,Owned,General Services,RA-1,AMESTOY AVE/RAYMER ST,LOS ANGELES,UNKNOWN,-118.5070222,34.22394888,12,495.9176515,None
-118.505911299920555,34.226540150333619,1015,0,2690019903,Not Classified,Owned,General Services,RA-1,OAK PARK AVE/PARTHENIA ST,LOS ANGELES,UNKNOWN,-118.5059113,34.22654015,12,438.1304377,None
-118.505914200580591,34.226206300580998,1016,0,2690020901,Not Classified,Owned,General Services,RA-1,OAK PARK AVE/CHASE ST,LOS ANGELES,UNKNOWN,-118.5059142,34.2262063,12,348.0308407, 
-118.508740499890436,34.271250009737223,1017,0,2696009901,Not Classified,Owned,General Services,R1-1,ALDEA AVE/LUDLOW ST,LOS ANGELES,UNKNOWN,-118.5087405,34.27125001,12,341.612956, 
-118.51607589995541,34.273273629531268,1018,0,2711015903,Not Classified,Owned,General Services,RA-1,LAHEY ST/ENCINO AVE,LOS ANGELES,UNKNOWN,-118.5160759,34.27327363,12,65.98935019,None
-118.602297700213441,34.263584440087101,1019,0,2722027900,Not Classified,Owned,General Services,RA-1,KINGSBURY ST/JORDAN AVE,LOS ANGELES,UNKNOWN,-118.6022977,34.26358444,12,887.1482001,None
-118.614362900030898,34.248559959460493,1020,0,2727005900,Not Classified,Owned,General Services,RA-1,KINZIE ST/SHOUP AVE,LOS ANGELES,UNKNOWN,-118.6143629,34.24855996,12,600.0303003, 
-118.51328140010834,34.256765249672625,1021,0,2734027900,Not Classified,Owned,General Services,RE11-1,ANDASOL AVE/TUBA ST,LOS ANGELES,UNKNOWN,-118.5132814,34.25676525,12,179.9122497, 
-118.610775700725952,34.251010750185067,1022,0,2745006900,Not Classified,Owned,General Services,RE11-1,SEPTO ST/GIERSON AVE,LOS ANGELES,UNKNOWN,-118.6107757,34.25101075,12,452.1293506,None
-118.581993599971028,34.247305919741194,1023,0,2748005900,Not Classified,Owned,General Services,RMP-1,COZYCRAFT AVE/SUPERIOR ST,LOS ANGELES,UNKNOWN,-118.5819936,34.24730592,12,1883.130897,None
-118.519374300777983,34.246741489806709,1024,0,2755007900,Not Classified,Owned,General Services,RA-1,SUPERIOR ST/WHITE OAK AVE,LOS ANGELES,UNKNOWN,-118.5193743,34.24674149,12,1320.488953,None
-118.554979399864933,34.24817778991487,1025,0,2761010901,Not Classified,Owned,General Services,RA-1,CALVIN AVE/LABRADOR ST,LOS ANGELES,UNKNOWN,-118.5549794,34.24817779,12,337.2380227, 
-118.548607099785698,34.239124280170962,1026,0,2762030900,Not Classified,Owned,General Services,RA-1,PRAIRIE ST/VANALDEN AVE,LOS ANGELES,UNKNOWN,-118.5486071,34.23912428,12,915.1186014, 
-118.542964299989151,34.234627110689686,1027,0,2770002900,Not Classified,Owned,General Services,R1-1,SUNBURST ST/GEYSER AVE,LOS ANGELES,UNKNOWN,-118.5429643,34.23462711,12,90.00159976, 
-118.542964200276131,34.234544670140977,1028,0,2770012900,Not Classified,Owned,General Services,R1-1,SUNBURST ST/GEYSER AVE,LOS ANGELES,UNKNOWN,-118.5429642,34.23454467,12,90.0015998, 
-118.578543499748108,34.227219120650176,1029,0,2781007900,Not Classified,Owned,General Services,RS-1,DELCO AVE/NAPA ST,LOS ANGELES,UNKNOWN,-118.5785435,34.22721912,3,115.4784321, 
-118.568918999201401,34.226351379956164,1030,0,2782011900,Not Classified,Owned,General Services,RA-1,PENFIELD AVE/CHASE ST,LOS ANGELES,WINNETKA,-118.568919,34.22635138,3,90.27894989,None
-118.568864800247042,34.226840799665204,1031,0,2782014901,Not Classified,Owned,General Services,(T)RS-1,PENFIELD AVE/BRYANT ST,LOS ANGELES,WINNETKA,-118.5688648,34.2268408,3,1076.186249, 
-118.542521700048681,34.224987069271045,1032,0,2785010901,Not Classified,Owned,General Services,R1-1,GEYSER AVE/CHASE ST,LOS ANGELES,UNKNOWN,-118.5425217,34.22498707,12,644.5222628, 
-118.540469200541423,34.223867199855,1033,0,2785012901,Not Classified,Owned,General Services,RA-1,YOLANDA AVE/COMMUNITY ST,LOS ANGELES,UNKNOWN,-118.5404692,34.2238672,12,534.360751,None
-118.543143099764976,34.221127149805746,1034,0,2785014900,Not Classified,Owned,General Services,RA-1,ROSCOE BLVD/GEYSER AVE,LOS ANGELES,UNKNOWN,-118.5431431,34.22112715,12,676.2361498,None
-118.381610099821657,33.968814459882296,1035,0,4104017904,OPLA,Owned,General Services,MR1-1VL,LA TUHERA BLVD/78TH ST,LOS ANGELES,LOS ANGELES,-118.3816101,33.96881446,11,600.1796499, 
-118.380794800547903,33.969097490362387,1036,0,4104018902,OPLA,Owned,General Services,R1-1,LA TUHERA BLVD/79TH ST,Los Angeles,LOS ANGELES,-118.3807948,33.96909749,11,579.5685998,None
-118.389944200107138,33.963620280050293,1037,0,4107009904,OPLA,Owned,General Services,R1-1,83RD ST/AIRLANE AVE,Los Angeles,LOS ANGELES,-118.3899442,33.96362028,11,566.9360501,None
-118.396368999528192,33.965867000049428,1038,0,4108027900,OPLA,Owned,General Services,R1-1,SEPULVEDA BLVD/80TH ST,Los Angeles,LOS ANGELES,-118.396369,33.965867,11,1200.195701,None
-118.39936799995138,33.957400000179874,1039,0,4122003907,OPLA,Owned,General Services,R2-1,MANCHESTER AVE/SEPULVEDA WWAY,Los Angeles,LOS ANGELES,-118.399368,33.9574,11,1100.0011,None
-118.403096300332976,33.957384709767908,1040,0,4122013900,OPLA,Owned,General Services,R1-1,8763 LIBERATOR AVE,Los Angeles,LOS ANGELES,-118.4030963,33.95738471,11,1051.093281,None
-118.381800999904371,33.960050999855298,1041,0,4125006900,OPLA,Owned,General Services,R2-1,MANCHESTER AVE/WINSFORD AVE,Los Angeles,LOS ANGELES,-118.381801,33.960051,11,540.3269995, 
-118.414679000638287,33.991927999682595,1042,0,4221010900,OPLA,Owned,General Services,R1-1,BRADDOCK DR/LINDBLADE DR,Los Angeles,LOS ANGELES,-118.414679,33.991928,11,400.0810498, 
-118.446963099985041,33.987911009830093,1043,0,4229005901,OPLA,Owned,General Services,R1-1,3132 STANFORD AVE,Los Angeles,LOS ANGELES,-118.4469631,33.98791101,11,303.0818003,None
-118.456237999579372,33.991734999630523,1044,0,4237009900,OPLA,Owned,General Services,R3-1,ALLEY NO 182/WOODLAWN AVE,Los Angeles,LOS ANGELES,-118.456238,33.991735,11,56.58299995,None
-118.461965000264158,34.00446986062196,1045,0,4243024900,Not Classified,Owned,General Services,OS-1XL,ROSE AVE/COURTLAND ST,LOS ANGELES,UNKNOWN,-118.461965,34.00446986,11,344.2437217, 
-118.455322699848196,34.00685574023592,1046,0,4244003900,Not Classified,Owned,General Services,R1-1VLD,GLENAVON AVE/LAKE ST,LOS ANGELES,VENTURA,-118.4553227,34.00685574,11,468.0660487, 
-118.441429999756053,34.008779999574287,1047,0,4246005900,OPLA,Owned,General Services,R1-1,PALMS BLVD/WASATCH AVE,Los Angeles,LOS ANGELES,-118.44143,34.00878,11,490.48565, 
-118.445280899512639,34.008572490093094,1048,0,4247016901,Not Classified,Owned,General Services,R1-1,APPLETON WAY/MEIER ST,LOS ANGELES,UNKNOWN,-118.4452809,34.00857249,11,138.6274496,None
-118.444490099991597,34.011214909482668,1049,0,4247021900,Not Classified,Owned,General Services,R1-1,WADE ST/STEWART AVE,LOS ANGELES,UNKNOWN,-118.4444901,34.01121491,11,339.24635,None
-118.441814999720535,34.008838999721085,1050,0,4247029900,OPLA,Owned,General Services,R1-1,PALMS BLVD/STEWART AVE,Los Angeles,LOS ANGELES,-118.441815,34.008839,11,499.9853003,None
-118.440925000140965,34.01309100021313,1051,0,4247031900,OPLA,Owned,General Services,R1-1,CENTINELA AVE/WOODBINE ST,Los Angeles,LOS ANGELES,-118.440925,34.013091,11,499.6769996,None
-118.422585999616885,34.016180000072296,1052,0,4249032900,OPLA,Owned,General Services,R1-1,TABOR ST/SWATELL BLVD,Los Angeles,LOS ANGELES,-118.422586,34.01618,11,203.6014507, 
-118.41739840042932,34.03423389030138,1053,0,4255007900,Not Classified,Owned,General Services,R1-1,DUNLEER PL/COVENTRY PL,LOS ANGELES,UNKNOWN,-118.4173984,34.03423389,5,91.13620013, 
-118.443297999676986,34.026171029810058,1054,0,4257008900,OPLA,Owned,General Services,R1-1,STONER AVE/RADIO DR,Los Angeles,LOS ANGELES,-118.443298,34.02617103,11,52.16099994, 
-118.443682700502478,34.088813960233395,1055,0,4370024900,Not Classified,Owned,General Services,RE20-1-H,STRADA VECHIA DR/BEL-AIR RD,LOS ANGELES,UNKNOWN,-118.4436827,34.08881396,5,4141.380568,None
-118.44749670016212,34.109944139381561,1056,0,4380005900,OPLA,Owned,General Services,RE15-1,DELLWOOD LN/ELK LN,Los Angeles,LOS ANGELES,-118.4474967,34.10994414,5,460.4974497,None
-118.441130300217694,34.130796720145604,1057,0,4382024900,Not Classified,Owned,General Services,OS-1XL-H,MULHOLLAND DR/BEVERLY GLEN BLVD,LOS ANGELES,LOS ANGELES,-118.4411303,34.13079672,5,12729.86885,None
-118.523708999908948,34.030784000043937,1058,0,4411030900,OPLA,Owned,General Services,RE20-1,PACIFIC COAST HWY/CHAUTAUQUA BLVD,Los Angeles,LOS ANGELES,-118.523709,34.030784,11,978.3833502, 
-118.54387919997005,34.044157530689162,1059,0,4415027900,OPLA,Owned,General Services,R1-1,SUNSET BLVD/LIVORNO DR,Los Angeles,LOS ANGELES,-118.5438792,34.04415753,11,49.48660005, 
-118.517048900273949,34.043587710426763,1060,0,4423024900,OPLA,Owned,General Services,R1-1,CHAUTAUQUA BLVD/DRUMMOND ST,Los Angeles,LOS ANGELES,-118.5170489,34.04358771,11,5130.247457,None
-118.503282599430491,34.105304939902275,1061,0,4491006900,OPLA,Owned,General Services,RE15-1-H,3401 MANDEVILLE CANYON RD,Los Angeles,LOS ANGELES,-118.5032826,34.10530494,11,1145.488022, 
-118.503883800527646,34.095663730418913,1062,0,4491009900,Not Classified,Owned,General Services,RE40-1-H,MANDEVILLE CANYON RD/MERRIMAC RD,LOS ANGELES,UNKNOWN,-118.5038838,34.09566373,11,40032.90551, 
-118.480352300506112,34.074294000356083,1063,0,4494003900,Not Classified,Owned,General Services,RS-1,LOCKEARN ST/NORMAN LN,LOS ANGELES,UNKNOWN,-118.4803523,34.074294,11,200.1203998,None
-118.371115399462596,34.016793079706602,1064,0,5029016900,Not Classified,Owned,General Services,OS-1XL,GLENFORD ST/CARMONA AVE,LOS ANGELES,LOS ANGELES,-118.3711154,34.01679308,10,40.06735004, 
-118.371141699439193,34.016742519806257,1065,0,5029018900,Not Classified,Owned,General Services,OS-1XL,GLENFORD ST/CARMONA AVE,LOS ANGELES,LOS ANGELES,-118.3711417,34.01674252,10,40.21940008,None
-118.326762600462018,34.01106030967167,1066,0,5034003900,OPLA,Owned,General Services,R1-1,MARTIN LUTHER KING JR BLVD/WSIDE A,Los Angeles,LOS ANGELES,-118.3267626,34.01106031,10,5064.861246,None
-118.374449899983162,34.046516549931503,1067,0,5066007907,OPLA,Owned,General Services,R1-1,AIRDROME ST/CRESCENT HEIGHTS BLVD,Los Angeles,LOS ANGELES,-118.3744499,34.04651655,10,929.7679811,None
-118.26116389939034,34.011154050133094,1068,0,5114004900,OPLA,Owned,General Services,RD2-1,MARTIN LUTHER KING JR/MCKINLEY AVE,Los Angeles,LOS ANGELES,-118.2611639,34.01115405,9,1364.202401, 
-118.255748199985831,34.008809360029076,1069,0,5115025900,OPLA,Owned,General Services,R2-1,41ST ST/CENTRAL AVE,Los Angeles,LOS ANGELES,-118.2557482,34.00880936,9,99.99999984,None
-118.244863799676722,34.009170910247136,1070,0,5117015900,OPLA,Owned,General Services,R2-1,MORGAN AVE/40TH ST,Los Angeles,LOS ANGELES,-118.2448638,34.00917091,9,1996.440099, 
-118.278927299904552,34.043479199809326,1071,0,5135019900,OPLA,Owned,General Services,RD1.5-1,1431 CONSTANCE ST,Los Angeles,LOS ANGELES,-118.2789273,34.0434792,1,0.514977544, 
-118.231175000086097,34.01835099981362,1072,0,5167005900,OPLA,Owned,General Services,M3-1,SANTA FE AVE/BUTTE ST,Los Angeles,LOS ANGELES,-118.231175,34.018351,14,4475.098131,None
-118.220715000748115,34.05239599998945,1073,0,5174017900,OPLA,Owned,General Services,[Q]C2-1,1430 CESAR E CHAVEZ,Los Angeles,LOS ANGELES,-118.220715,34.052396,14,156.04235, 
-118.204463000428063,34.034753999934054,1074,0,5186002900,OPLA,Owned,General Services,R2-1,EUCLID AVE/LANFRANCO ST,Los Angeles,LOS ANGELES,-118.204463,34.034754,14,134.5285, 
-118.199310999678588,34.030942000387405,1075,0,5186015902,OPLA,Owned,General Services,C2-1,LORENA ST/6TH ST,Los Angeles,LOS ANGELES,-118.199311,34.030942,14,600.2016089,None
-118.214941899421291,34.061672699992968,1076,0,5210006901,Not Classified,Owned,General Services,OS-1XL,MISSION RD/DALY ST,LOS ANGELES,UNKNOWN,-118.2149419,34.0616727,14,2187.319165,None
-118.165099800248356,34.073659809756194,1077,0,5221010900,Not Classified,Owned,General Services,PF-1,VALLEY BLVD/MARIONDALE AVE,LOS ANGELES,LOS ANGELES,-118.1650998,34.07365981,14,18.16799993,None
-118.274688999885072,34.088738689549224,1078,0,5425002900,OPLA,Owned,General Services,RD1.5-1VL,1514 MICHELTORENA ST,Los Angeles,LOS ANGELES,-118.274689,34.08873869,13,225.5895985, 
-118.253952500072231,34.103819609673252,1079,0,5438009900,OPLA,Owned,General Services,R2-1VL,LAKE VIEW AVE/ADELBERT AVE,Los Angeles,LOS ANGELES,-118.2539525,34.10381961,13,11.32089997, 
-118.260581999495372,34.098950000620036,1080,0,5439004900,OPLA,Owned,General Services,R1-1VL,EDGEWATER TER/DEANE ST,Los Angeles,LOS ANGELES,-118.260582,34.09895,13,66.10204972, 
-118.252770000053033,34.101494999764959,1081,0,5440029900,OPLA,Owned,General Services,R2-1VL,2601 RIVERSIDE TER,Los Angeles,LOS ANGELES,-118.25277,34.101495,13,25.7842, 
-118.22653399969775,34.124299000556213,1082,0,5473015900,OPLA,Owned,General Services,R1-1,YORK BLVD/AVE 42,Los Angeles,LOS ANGELES,-118.226534,34.124299,14,337.3088997,None
-118.188459000703446,34.119808999822077,1083,0,5484004900,OPLA,Owned,General Services,R1-1,ALDAMA ST/MERIDIAN ST,Los Angeles,LOS ANGELES,-118.188459,34.119809,14,68.00869998,None
-118.317813100308001,34.062802399830325,1084,0,5504009900,Not Classified,Owned,General Services,RE15-1-HPOZ,BRONSON AVE/6TH ST,LOS ANGELES,UNKNOWN,-118.3178131,34.0628024,4,1322.5686,None
-118.32002399974931,34.099876000236357,1085,0,5545007900,OPLA,Owned,General Services,[Q]R4-1VL,GORDON ST/CARLTON WAY,Los Angeles,LOS ANGELES,-118.320024,34.099876,13,186.0000001, 
-118.341697499895645,34.110797140222019,1086,0,5549014901,OPLA,Owned,General Services,RE9-1,LOS TILOS RD/LA PRESA DR,Los Angeles,LOS ANGELES,-118.3416975,34.11079714,4,320.4677503, 
-118.370810900225678,34.119056460044703,1087,0,5565023900,OPLA,Owned,General Services,RE11-1,WILLOW GLEN RD/WOODSTOCK RD,Los Angeles,LOS ANGELES,-118.3708109,34.11905646,4,224.7394023,None
-118.373309900158361,34.116574709529402,1088,0,5565026900,Not Classified,Owned,General Services,RE11-1,DOMINION WAY/DOMINION LN,LOS ANGELES,LOS ANGELES,-118.3733099,34.11657471,4,1378.677321, 
-118.377127699691698,34.107872690123614,1089,0,5567012901,Not Classified,Owned,General Services,R1-1,GROVELAND DR/KEW DR,LOS ANGELES,UNKNOWN,-118.3771277,34.10787269,4,24398.08648, 
-118.377536000158031,34.108209740143202,1090,0,5567013900,Not Classified,Owned,General Services,R1-1,STANLEY HILLS PL/STANLEY HILLS DR,LOS ANGELES,UNKNOWN,-118.377536,34.10820974,4,9037.16675, 
-118.375486299801196,34.108275329494163,1091,0,5567019900,OPLA,Owned,General Services,R1-1,JEWETT DR/ELUSIVE DR,Los Angeles,LOS ANGELES,-118.3754863,34.10827533,4,379.1703313,None
-118.371602399534325,34.107957330413399,1092,0,5567022900,OPLA,Owned,General Services,R1-1,OAKDEN DR/UTICA DR,Los Angeles,LOS ANGELES,-118.3716024,34.10795733,4,389.6729, 
-118.374994600642225,34.107538390051474,1093,0,5567024900,OPLA,Owned,General Services,R1-1,UTICA DR/WEEPAH WAY,Los Angeles,LOS ANGELES,-118.3749946,34.10753839,4,625.9286497, 
-118.347112800448187,34.113489630619334,1094,0,5572011900,OPLA,Owned,General Services,RE15-1-H,CHELAN WAY/CHELAN DR,Los Angeles,LOS ANGELES,-118.3471128,34.11348963,4,120.30225, 
-118.333711100625706,34.110123399360283,1095,0,5576002900,OPLA,Owned,General Services,R1-1,LASH LN/WHITLEY TER,Los Angeles,LOS ANGELES,-118.3337111,34.1101234,4,16.30469992,None
-118.217425900183713,34.144480879413486,1096,0,5671001900,Not Classified,Owned,General Services,PF-1,HILL DR/HILLTOP RD,LOS ANGELES,UNKNOWN,-118.2174259,34.14448088,14,2748.756992,None
-118.231505999623877,34.13557899995434,1097,0,5683013900,OPLA,Owned,General Services,R1-1,922 OSCELA,Los Angeles,LOS ANGELES,-118.231506,34.135579,14,1949.115301,None
-118.222889999917413,34.13478300007317,1098,0,5683021900,OPLA,Owned,General Services,R1-1,ADJECENT TO 4888 ROUND TOP DR,Los Angeles,LOS ANGELES,-118.22289,34.134783,14,1064.620181,None
-118.18993900028687,34.138271009841475,1099,0,5690022900,Not Classified,Owned,General Services,R2-1,MONTE BONITO DR/KIPLING AVE,LOS ANGELES,UNKNOWN,-118.189939,34.13827101,14,1174.5622,None
-118.267238300155014,33.973589590087755,1100,0,6022023900,OPLA,Owned,General Services,R2-1,424 73RD ST,Los Angeles,LOS ANGELES,-118.2672383,33.97358959,9,1505.1419,None
-118.303346999281828,33.863718000625475,1101,0,6108007900,OPLA,Owned,General Services,R1-1,1526 184TH ST,Los Angeles,LOS ANGELES,-118.303347,33.863718,15,43.64999998, 
-118.279427000357771,33.777102999834774,1102,0,7416001900,OPLA,Owned,General Services,R1-1XL-O,FIGUEROA ST/ARABIC ST,Los Angeles,LOS ANGELES,-118.279427,33.777103,15,399.4338005, 
-118.261002000518261,33.775504000055122,1103,0,7418013900,OPLA,Owned,General Services,[Q]CM-1VL-O,545 BROAD AVE,Los Angeles,WILMINGTON,-118.261002,33.775504,15,466.1871356,None
-118.26269190045096,33.786183700178235,1104,0,7423007900,Commercial Improved,Owned,General Services,[Q]C2-1VL-O-CUGU,1148 N AVALON BLVD,LOS ANGELES,LOS ANGELES,-118.2626919,33.7861837,15,9500.837398, 
-118.255207199487415,33.775799190072469,1105,0,7424005901,OPLA,Owned,General Services,[Q]M2-1VL-O-CUGU,444 N LECOUVREUR AVE,LOS ANGELES,LOS ANGELES,-118.2552072,33.77579919,15,7162.5943,None
-118.255912200017363,33.791747939793524,1106,0,7426002900,OPLA,Owned,General Services,[Q]R2-1XL-O-CUGU,PACIFIC COAST HWY/EUBANK AVE,LOS ANGELES,UNKNOWN,-118.2559122,33.79174794,15,380.5569999,None
-118.294522299375274,33.76386975983079,1107,0,7442022901,Not Classified,Owned,General Services,[Q]M1-1VL,WMONT AVE/GAFFEY ST,LOS ANGELES,UNKNOWN,-118.2945223,33.76386976,15,1802.040916,None
-118.29376110024117,33.759094080667182,1108,0,7442023901,Not Classified,Owned,General Services,[Q]M1-1VL,CAPITOL DR/GAFFEY ST,LOS ANGELES,UNKNOWN,-118.2937611,33.75909408,15,1716.653997, 
-118.292831000765659,33.747065999475623,1109,0,7447028900,OPLA,Owned,General Services,R1-1XL,720 SUMMERLAND PL,Los Angeles,LOS ANGELES,-118.292831,33.747066,15,2.506950011, 
-118.293018000363418,33.748273999893705,1110,0,7448008900,OPLA,Owned,General Services,C1-1XL,ELBERON AVE/GAFFEY ST,Los Angeles,LOS ANGELES,-118.293018,33.748274,15,541.3513999, 
-118.381321400153979,34.283856599983551,1111,0,2530038900,Not Classified,Owned,General Services,R1-1,TERRA VISTA WAY/TERRA BELLA ST,LOS ANGELES,LAKE VIEW TERRACE,-118.3813214,34.2838566,7,2663.141548, 
-118.622213200043703,34.173962740112017,1112,0,2040006901,Not Classified,Owned,General Services,R1-1,COLLINS ST/FALLBROOK AVE,LOS ANGELES,WOODLAND HILLS,-118.6222132,34.17396274,3,30.14999963, 
-118.622987500207898,34.173912559402254,1113,0,2040006902,Not Classified,Owned,General Services,R1-1,COLLINS ST/FALLBROOK AVE,LOS ANGELES,WOODLAND HILLS,-118.6229875,34.17391256,3,793.8536757, 
-118.635445899811771,34.17099153048084,1114,0,2044001905,Not Classified,Owned,General Services,RA-1,BERDON ST/SADRING AVE,LOS ANGELES,UNKNOWN,-118.6354459,34.17099153,3,1164.163251, 
-118.633685299771258,34.167342940138575,1115,0,2044016900,Not Classified,Owned,General Services,R1-1,LADRILLO ST/WOODLAKE AVE,LOS ANGELES,UNKNOWN,-118.6336853,34.16734294,3,46.27645048, 
-118.632448599899391,34.16736843938866,1116,0,2044016901,Not Classified,Owned,General Services,R1-1,LADRILLO ST/WOODLAKE AVE,LOS ANGELES,UNKNOWN,-118.6324486,34.16736844,3,26.36750011, 
-118.632294399589298,34.167414060335226,1117,0,2044016902,Not Classified,Owned,General Services,R1-1,LADRILLO ST/WOODLAKE AVE,LOS ANGELES,UNKNOWN,-118.6322944,34.16741406,3,88.98975615, 
-118.631801800318414,34.155901160128344,1118,0,2074033900,OPLA,Owned,General Services,RA-1,ALMIDOR AVE/HEISS ST,Los Angeles,LOS ANGELES,-118.6318018,34.15590116,3,135.9732989, 
-118.632030700035941,34.155892840358561,1119,0,2074033901,OPLA,Owned,General Services,RA-1,4705 ALMIDOR AVE,Los Angeles,LOS ANGELES,-118.6320307,34.15589284,3,5.273800026, 
-118.631928600215716,34.154673089457006,1120,0,2074033902,Not Classified,Owned,General Services,RA-1VL,LIAHONA PL/CUMORAH CREST DR,LOS ANGELES,UNKNOWN,-118.6319286,34.15467309,3,41.06814369, 
-118.539385400219132,34.212925769753653,1121,0,2103022905,Not Classified,Owned,General Services,(T)RS-1,ELKWOOD ST/YOLANDA AVE,LOS ANGELES,UNKNOWN,-118.5393854,34.21292577,3,146.3591002, 
-118.548927200064156,34.214730049643677,1122,0,2104005900,Not Classified,Owned,General Services,RA-1,BLYTHE ST/VANALDEN AVE,LOS ANGELES,UNKNOWN,-118.5489272,34.21473005,3,94.99955018, 
-118.557571499397028,34.219601060574476,1123,0,2105017900,Not Classified,Owned,General Services,RS-1,CANTARA ST/SHIRLEY AVE,LOS ANGELES,UNKNOWN,-118.5575715,34.21960106,3,9.204849943, 
-118.557255500826159,34.219570669390343,1124,0,2105017901,Not Classified,Owned,General Services,RA-1,CANTARA ST/TUNNEY AVE,LOS ANGELES,UNKNOWN,-118.5572555,34.21957067,3,2580.578499, 
-118.556647699806604,34.219575649908535,1125,0,2105018900,Not Classified,Owned,General Services,RA-1,CANTARA ST/TUNNEY AVE,LOS ANGELES,UNKNOWN,-118.5566477,34.21957565,3,1730.3496,None
-118.554763399954837,34.219586049942599,1126,0,2105018905,Not Classified,Owned,General Services,RA-1,CANTARA ST/AURA AVE,LOS ANGELES,UNKNOWN,-118.5547634,34.21958605,3,150.15395, 
-118.556338500584147,34.219578179907643,1127,0,2105018906,Not Classified,Owned,General Services,RA-1,CANTARA ST/TUNNEY AVE,LOS ANGELES,UNKNOWN,-118.5563385,34.21957818,3,65.61259998, 
-118.564816799337322,34.209954960115077,1128,0,2106011900,Not Classified,Owned,General Services,R1-1,HATILLO AVE/STAGG ST,LOS ANGELES,UNKNOWN,-118.5648168,34.20995496,3,26.99, 
-118.56481669962433,34.209880759348465,1129,0,2106011901,Not Classified,Owned,General Services,R1-1,HATILLO AVE/STAGG ST,LOS ANGELES,UNKNOWN,-118.5648167,34.20988076,3,27.0099999, 
-118.584181000382799,34.21960451982347,1130,0,2108001902,OPLA,Owned,General Services,RS-1,IRONDALE AVE/CANTARA ST,Los Angeles,LOS ANGELES,-118.584181,34.21960452,3,1000.04726, 
-118.583059300138672,34.219066439613734,1131,0,2108001908,Not Classified,Owned,General Services,RS-1,CANTARA ST/LURLINE AVE,LOS ANGELES,UNKNOWN,-118.5830593,34.21906644,3,21.63471213, 
-118.584701900178416,34.201916430404104,1132,0,2113015904,Not Classified,Owned,General Services,RA-1,CANTLAY ST/LURLINE AVE,LOS ANGELES,UNKNOWN,-118.5847019,34.20191643,3,375.0268499, 
-118.519733500229179,34.199796200534422,1133,0,2121018901,Not Classified,Owned,General Services,R1-1,GAULT ST/YARMOUTH AVE,LOS ANGELES,UNKNOWN,-118.5197335,34.1997962,3,159.0874501, 
-118.524502100015411,34.193575350691766,1134,0,2122023900,Not Classified,Owned,General Services,R1-1,VANOWEN ST/BERTRAND AVE,LOS ANGELES,UNKNOWN,-118.5245021,34.19357535,3,812.804701, 
-118.525795799788682,34.193381849846773,1135,0,2122023901,Not Classified,Owned,General Services,R1-1-RIO,VANOWEN ST/BERTRAND AVE,LOS ANGELES,UNKNOWN,-118.5257958,34.19338185,3,2100.36625, 
-118.518902700525203,34.182986480281954,1136,0,2123030901,Not Classified,Owned,General Services,RA-1-RIO,DELANO ST/YARMOUTH AVE,LOS ANGELES,UNKNOWN,-118.5189027,34.18298648,5,298.3708486, 
-118.542580099525281,34.187541549452867,1137,0,2127002900,OPLA,Owned,General Services,R1-1,GEYSER AVE/GILMORE ST,Los Angeles,LOS ANGELES,-118.5425801,34.18754155,3,90.00119983, 
-118.552473499972521,34.19021275048317,1138,0,2128001901,OPLA,Owned,General Services,R1-1,KITTRIDGE ST/SYLVIA AVE,Los Angeles,LOS ANGELES,-118.5524735,34.19021275,3,89.95554995, 
-118.552374299913993,34.190212910242209,1139,0,2128001902,OPLA,Owned,General Services,R1-1,KITTRIDGE ST/SYLVIA AVE,Los Angeles,LOS ANGELES,-118.5523743,34.19021291,3,89.89545032, 
-118.55240819963791,34.199274279343079,1140,0,2129006900,OPLA,Owned,General Services,R1-1,HART ST/SYLVIA AVE,Los Angeles,LOS ANGELES,-118.5524082,34.19927428,3,81.00099996, 
-118.552318899912123,34.199274400449731,1141,0,2129006901,OPLA,Owned,General Services,R1-1,HART ST/SYLVIA AVE,Los Angeles,LOS ANGELES,-118.5523189,34.1992744,3,81.13605015, 
-118.554622500100834,34.199591310666939,1142,0,2130027900,Not Classified,Owned,General Services,RA-1-RIO,GAULT ST/AURA AVE,LOS ANGELES,UNKNOWN,-118.5546225,34.19959131,3,85.96095024, 
-118.554622100350556,34.19941083997039,1143,0,2130029900,Not Classified,Owned,General Services,RA-1-RIO,GAULT ST/AURA AVE,LOS ANGELES,UNKNOWN,-118.5546221,34.19941084,3,307.8429003, 
-118.556319999780854,34.188671619585413,1144,0,2131025900,Not Classified,Owned,General Services,C2-1VL-RIO,SHIRLEY AVE/HAYNES ST,LOS ANGELES,UNKNOWN,-118.55632,34.18867162,3,411.9572025, 
-118.563359200143836,34.189282379962357,1145,0,2134026900,Not Classified,Owned,General Services,A1-1-RIO,JUMILIA AVE/HAMLIN ST,LOS ANGELES,UNKNOWN,-118.5633592,34.18928238,3,90.07540017, 
-118.563260000085336,34.189282559786172,1146,0,2134026901,Not Classified,Owned,General Services,A1-1-RIO,JUMILIA AVE/HAMLIN ST,LOS ANGELES,UNKNOWN,-118.56326,34.18928256,3,90.19649997, 
-118.587206599921558,34.200102519865354,1147,0,2137020901,Not Classified,Owned,General Services,(T)RS-1,GAZETTE AVE/ENADIA WAY,LOS ANGELES,UNKNOWN,-118.5872066,34.20010252,3,990.8374, 
-118.585188999963123,34.200137190193772,1148,0,2137020902,Not Classified,Owned,General Services,(T)RS-1-RIO,IRONDALE AVE/ENADIA WAY,LOS ANGELES,WINNETKA,-118.585189,34.20013719,3,60.0860999, 
-118.538475200223786,34.163795639689418,1149,0,2161012905,OPLA,Owned,General Services,RA-1,WELLS DR/MECCA AVE,Los Angeles,LOS ANGELES,-118.5384752,34.16379564,3,257.5649499, 
-118.546890800163439,34.167679730003734,1150,0,2163022901,Not Classified,Owned,General Services,RA-1,SANTA RITA ST/TOPEKA DR,LOS ANGELES,UNKNOWN,-118.5468908,34.16767973,3,435.0048002, 
-118.549536999835198,34.167720920188628,1151,0,2163022903,Not Classified,Owned,General Services,RA-1,SANTA RITA ST/VANALDEN AVE,LOS ANGELES,UNKNOWN,-118.549537,34.16772092,3,408.0045002, 
-118.547317200784406,34.167633659525919,1152,0,2163023901,Not Classified,Owned,General Services,RA-1,SANTA RITA ST/TOPEKA DR,LOS ANGELES,UNKNOWN,-118.5473172,34.16763366,3,90.00119991, 
-118.5469793003886,34.166294630140264,1153,0,2163023902,Not Classified,Owned,General Services,RA-1,SPRAGUE ST/TOPEKA DR,LOS ANGELES,UNKNOWN,-118.5469793,34.16629463,3,599.9946003, 
-118.506064200368414,34.220246850217372,1154,0,2204002900,Not Classified,Owned,General Services,RA-1,AMESTOY AVE/BURTON ST,LOS ANGELES,UNKNOWN,-118.5060642,34.22024685,6,23.99450018,None
-118.506331999832739,34.220206039997215,1155,0,2204002901,Not Classified,Owned,General Services,RA-1,AMESTOY AVE/BURTON ST,LOS ANGELES,UNKNOWN,-118.506332,34.22020604,6,163.023753, 
-118.473800300539153,34.211338069880114,1156,0,2206012900,Not Classified,Owned,General Services,CM-1,AQUEDUCT AVE/STAGG ST,LOS ANGELES,UNKNOWN,-118.4738003,34.21133807,6,126.2544995, 
-118.473731800405474,34.211708629833332,1157,0,2206012901,Not Classified,Owned,General Services,PF-1XL,AQUEDUCT AVE/STAGG ST,LOS ANGELES,UNKNOWN,-118.4737318,34.21170863,6,800.6995718, 
-118.458364200465809,34.220609130397911,1158,0,2210003901,Not Classified,Owned,General Services,R1-1,BURTON ST/BRIMFIELD AVE,LOS ANGELES,PANORAMA CITY,-118.4583642,34.22060913,6,89.99879982, 
-118.45371429956964,34.216118219982853,1159,0,2210016900,Not Classified,Owned,General Services,R3-1,STRATHERN ST/CEDROS AVE,LOS ANGELES,UNKNOWN,-118.4537143,34.21611822,6,94.89023808, 
-118.454872200123106,34.216066660390474,1160,0,2210020901,Not Classified,Owned,General Services,R3-1,STRATHERN ST/WILLIS AVE,LOS ANGELES,UNKNOWN,-118.4548722,34.21606666,6,90.14114049, 
-118.453876200238355,34.216072010305965,1161,0,2210020902,Not Classified,Owned,General Services,R3-1,STRATHERN ST/WILLIS AVE,LOS ANGELES,UNKNOWN,-118.4538762,34.21607201,6,89.9999999, 
-118.452348899863637,34.209312300161137,1162,0,2210027900,Not Classified,Owned,General Services,(Q)CM-1,LULL ST/TOBIAS AVE,LOS ANGELES,UNKNOWN,-118.4523489,34.2093123,6,90.03000015, 
-118.452598099709988,34.209354709914095,1163,0,2210027906,Not Classified,Owned,General Services,(Q)CM-1,LULL ST/TOBIAS AVE,LOS ANGELES,UNKNOWN,-118.4525981,34.20935471,6,298.9844246, 
-118.442308100251338,34.205683710072613,1164,0,2215017903,Residential Vacant Land,Owned,General Services,R1-1,UNKNOWN,LOS ANGELES,LOS ANGELES,-118.4423081,34.20568371,2,781.051321, 
-118.440896500190277,34.205961759718207,1165,0,2215017904,Not Classified,Owned,General Services,R1-1,RUNNYMEDE ST/STANSBURY AVE,LOS ANGELES,UNKNOWN,-118.4408965,34.20596176,2,1051.015601, 
-118.446525399456121,34.205774480349554,1166,0,2215023900,Not Classified,Owned,General Services,R1-1,RUNNYMEDE ST/TYRONE AVE,LOS ANGELES,UNKNOWN,-118.4465254,34.20577448,2,90.05670618, 
-118.446525399456121,34.205692050193512,1167,0,2215023901,Not Classified,Owned,General Services,R1-1,RUNNYMEDE ST/TYRONE AVE,LOS ANGELES,UNKNOWN,-118.4465254,34.20569205,2,90.11288404, 
-118.445238499929573,34.205122280450446,1168,0,2215024900,OPLA,Owned,General Services,R1-1,14319 VALERIO,Los Angeles,LOS ANGELES,-118.4452385,34.20512228,2,825.7126108,None
-118.439227000099365,34.203046229897012,1169,0,2216002900,Not Classified,Owned,General Services,R1-1,WYANDOTTE ST/MURIETTA AVE,LOS ANGELES,UNKNOWN,-118.439227,34.20304623,2,129.3830643,None
-118.437671799848545,34.201775299409277,1170,0,2216002901,OPLA,Owned,General Services,R1-1,SHERMAN WAY/HAZELTINE AVE,Los Angeles,LOS ANGELES,-118.4376718,34.2017753,2,2164.34625, 
-118.438943799917823,34.197288390150206,1171,0,2216013900,Not Classified,Owned,General Services,R1-1,MURIETTA AVE/HART ST,LOS ANGELES,UNKNOWN,-118.4389438,34.19728839,2,20.9091397, 
-118.439396800552672,34.197086310176552,1172,0,2216013901,OPLA,Owned,General Services,[Q]RD1.5-1,MURIETTA AVE/HART ST,Los Angeles,LOS ANGELES,-118.4393968,34.19708631,2,250.0278408,None
-118.435998499883993,34.197566750569905,1173,0,2216018900,Not Classified,Owned,General Services,R1-1,HART ST/COLBATH AVE,LOS ANGELES,UNKNOWN,-118.4359985,34.19756675,2,178.5941637,None
-118.436680100199084,34.194861669484112,1174,0,2216018901,Not Classified,Owned,General Services,R1-1,HART ST/COLBATH AVE,LOS ANGELES,UNKNOWN,-118.4366801,34.19486167,2,25.97469756,None
-118.434557499760345,34.200258779927346,1175,0,2216032900,Not Classified,Owned,General Services,R1-1,CANTALOUPE AVE/ENADIA WAY,LOS ANGELES,UNKNOWN,-118.4345575,34.20025878,2,34.05302366,None
-118.434410900095841,34.200258840108482,1176,0,2216032901,Not Classified,Owned,General Services,R1-1,CANTALOUPE AVE/ENADIA WAY,LOS ANGELES,UNKNOWN,-118.4344109,34.20025884,2,54.643719,None
-118.434315600522311,34.200293209467127,1177,0,2216032902,Not Classified,Owned,General Services,R1-1,CANTALOUPE AVE/ENADIA WAY,LOS ANGELES,UNKNOWN,-118.4343156,34.20029321,2,24.99232503, 
-118.44110300041622,34.203126100200507,1178,0,2217028901,Not Classified,Owned,General Services,R1-1,WYANDOTTE ST/KATHERINE AVE,LOS ANGELES,UNKNOWN,-118.441103,34.2031261,2,141.0952129, 
-118.462313900530589,34.19870496031092,1179,0,2220002904,Not Classified,Owned,General Services,R1-1,BURNET AVE/VOSE ST,LOS ANGELES,UNKNOWN,-118.4623139,34.19870496,6,129.1023446, 
-118.460743499886888,34.203878350168402,1180,0,2221015900,Not Classified,Owned,General Services,R1-1,LEADWELL ST/NOBLE AVE,LOS ANGELES,UNKNOWN,-118.4607435,34.20387835,6,89.85104987, 
-118.460839500146363,34.20387827958865,1181,0,2221015901,Not Classified,Owned,General Services,R1-1,LEADWELL ST/NOBLE AVE,LOS ANGELES,UNKNOWN,-118.4608395,34.20387828,6,1650.0231, 
-118.467795500344351,34.212977380297083,1182,0,2222003901,Not Classified,Owned,General Services,R1-1,ZOMBAR AVE/STAGG ST,LOS ANGELES,LOS ANGELES,-118.4677955,34.21297738,6,249.9569002, 
-118.49130380047535,34.197630180504184,1183,0,2224011908,Not Classified,Owned,General Services,M1-1,HART ST/HAYVENHURST AVE,LOS ANGELES,UNKNOWN,-118.4913038,34.19763018,6,33.25171875, 
-118.500569599237565,34.197234969702428,1184,0,2225023900,OPLA,Owned,General Services,R1-1,BALBOA BLVD/HART ST,Los Angeles,LOS ANGELES,-118.5005696,34.19723497,6,499.9541594, 
-118.460862300286578,34.189453320145972,1185,0,2235015900,Not Classified,Owned,General Services,R1-1,NORWICH AVE/HAYNES ST,LOS ANGELES,UNKNOWN,-118.4608623,34.18945332,6,47.4883176, 
-118.460924000173549,34.189489049271899,1186,0,2235015901,Not Classified,Owned,General Services,R1-1,NORWICH AVE/HAYNES ST,LOS ANGELES,UNKNOWN,-118.460924,34.18948905,6,36.12349687, 
-118.460888900300461,34.189474510328999,1187,0,2235015902,Not Classified,Owned,General Services,R1-1,NORWICH AVE/HAYNES ST,LOS ANGELES,UNKNOWN,-118.4608889,34.18947451,6,32.03659752, 
-118.432346000244422,34.184286399856404,1188,0,2239007900,Not Classified,Owned,General Services,RE9-1,MAMMOTH AVE/ERWIN ST,LOS ANGELES,UNKNOWN,-118.432346,34.1842864,2,131.2991499, 
-118.439195100025316,34.183914160296716,1189,0,2239013900,OPLA,Owned,General Services,R1-1,MURIETTA AVE/CALVERT ST,Los Angeles,LOS ANGELES,-118.4391951,34.18391416,2,485.3823564, 
-118.438915900041749,34.182495810082727,1190,0,2239013901,Not Classified,Owned,General Services,R1-1,MURIETTA AVE/CALVERT ST,LOS ANGELES,UNKNOWN,-118.4389159,34.18249581,2,89.4320717, 
-118.471892900509872,34.183044770559178,1191,0,2242001900,OPLA,Owned,General Services,PF-1XL,BLUCHER AVE/ERWIN ST,Los Angeles,LOS ANGELES,-118.4718929,34.18304477,6,1160.438113, 
-118.441772800461749,34.170340609738105,1192,0,2245026901,Not Classified,Owned,General Services,R1-1,ALBERS ST/STANSBURY AVE,LOS ANGELES,UNKNOWN,-118.4417728,34.17034061,4,62.96563107, 
-118.438807700660732,34.177111229939904,1193,0,2246015900,Not Classified,Owned,General Services,R1-1,MURIETTA AVE/HATTERAS ST,LOS ANGELES,UNKNOWN,-118.4388077,34.17711123,2,90.15031892,None
-118.438094500308864,34.177573299833739,1194,0,2246015901,Not Classified,Owned,General Services,R1-1,CALIFA ST/MURIETTA AVE,LOS ANGELES,UNKNOWN,-118.4380945,34.1775733,2,346.5370317, 
-118.438334099859759,34.177573150455245,1195,0,2246015902,Not Classified,Owned,General Services,R1-1,CALIFA ST/MURIETTA AVE,LOS ANGELES,UNKNOWN,-118.4383341,34.17757315,2,75.13238126, 
-118.438906800107929,34.17711118980813,1196,0,2246016900,Not Classified,Owned,General Services,R1-1,MURIETTA AVE/HATTERAS ST,LOS ANGELES,UNKNOWN,-118.4389068,34.17711119,2,90.15086874, 
-118.439320400634386,34.177341849766201,1197,0,2246016901,OPLA,Owned,General Services,R1-1,CALIFA ST/HAZELTINE AVE,Los Angeles,LOS ANGELES,-118.4393204,34.17734185,2,3298.36289, 
-118.43674129972446,34.175501290314891,1198,0,2246019900,Not Classified,Owned,General Services,R1-1,COLBATH AVE/HATTERAS ST,LOS ANGELES,UNKNOWN,-118.4367413,34.17550129,2,3283.731953, 
-118.436746200034335,34.175048339274298,1199,0,2246019901,Not Classified,Owned,General Services,R1-1,COLBATH AVE/HATTERAS ST,LOS ANGELES,UNKNOWN,-118.4367462,34.17504834,2,439.3748277, 
-118.437801699831923,34.173035719908071,1200,0,2246030900,Not Classified,Owned,General Services,R1-1,COSTELLO AVE/COLLINS ST,LOS ANGELES,UNKNOWN,-118.4378017,34.17303572,2,180.5417376, 
-118.433866600085437,34.170274030236875,1201,0,2247013900,Not Classified,Owned,General Services,R1-1,ALBERS ST/MATILIJA AVE,LOS ANGELES,UNKNOWN,-118.4338666,34.17027403,4,29.98984374, 
-118.434896399981071,34.170273120509904,1202,0,2247013902,Not Classified,Owned,General Services,R1-1,ALBERS ST/CANTALOUPE AVE,LOS ANGELES,UNKNOWN,-118.4348964,34.17027312,4,30.00031244, 
-118.435250199659066,34.170272670105817,1203,0,2247013903,Not Classified,Owned,General Services,R1-1,ALBERS ST/RANCHITO AVE,LOS ANGELES,UNKNOWN,-118.4352502,34.17027267,4,30.00160325, 
-118.433926600359882,34.170319359749172,1204,0,2247013904,Not Classified,Owned,General Services,R1-1,ALBERS ST/MATILIJA AVE,LOS ANGELES,UNKNOWN,-118.4339266,34.17031936,4,33.19028119,None
-118.455309099354793,34.165478109975169,1205,0,2249021901,Not Classified,Owned,General Services,R1-1,WILLIS AVE/MCCORMICK ST,LOS ANGELES,UNKNOWN,-118.4553091,34.16547811,4,47.24927443, 
-118.459955000052986,34.171271070238411,1206,0,2250015900,Not Classified,Owned,General Services,R1-1,KILLION ST/LEMONA AVE,LOS ANGELES,UNKNOWN,-118.459955,34.17127107,4,107.9409374, 
-118.459822899197206,34.171226249608381,1207,0,2250015901,Not Classified,Owned,General Services,R1-1,KILLION ST/LEMONA AVE,LOS ANGELES,UNKNOWN,-118.4598229,34.17122625,4,230.7449001, 
-118.504452700003824,34.166927840221028,1208,0,2258028900,Not Classified,Owned,General Services,RA-1,OAK PARK AVE/MCCORMICK ST,LOS ANGELES,UNKNOWN,-118.5044527,34.16692784,5,4876.077483, 
-118.503776600073223,34.165996180503306,1209,0,2258028901,Not Classified,Owned,General Services,RA-1,OAK PARK AVE/MCCORMICK ST,LOS ANGELES,UNKNOWN,-118.5037766,34.16599618,5,938.7194044, 
-118.473733600629316,34.157924620210956,1210,0,2261030901,Not Classified,Owned,General Services,R1-1,AQUEDUCT AVE/LA MIADA ST,LOS ANGELES,UNKNOWN,-118.4737336,34.15792462,5,286.9620575, 
-118.473871099461647,34.15809973017879,1211,0,2261030902,Not Classified,Owned,General Services,R1-1,AQUEDUCT AVE/LA MIADA ST,LOS ANGELES,UNKNOWN,-118.4738711,34.15809973,5,894.3520577, 
-118.47389539978839,34.158401269570966,1212,0,2261030903,Not Classified,Owned,General Services,R1-1,AQUEDUCT AVE/LA MIADA ST,LOS ANGELES,UNKNOWN,-118.4738954,34.15840127,5,237.1085996, 
-118.458534500382413,34.163083310397205,1213,0,2263005900,Not Classified,Owned,General Services,R1-1-RIO,OTSEGO ST/LEMONA AVE,LOS ANGELES,UNKNOWN,-118.4585345,34.16308331,4,44.99305011, 
-118.459574499749777,34.164358600590354,1214,0,2263005903,Not Classified,Owned,General Services,[Q]R3-1-RIO,LEMONA AVE/HARTSOOK ST,LOS ANGELES,UNKNOWN,-118.4595745,34.1643586,4,45.00120019, 
-118.446256300129619,34.135485140556661,1215,0,2274025900,Not Classified,Owned,General Services,RE15-1-H,DE LA CUMBRE PL/GLORIETTA DR,LOS ANGELES,UNKNOWN,-118.4462563,34.13548514,4,90.05899981, 
-118.445746199880361,34.135674489843176,1216,0,2274025901,Not Classified,Owned,General Services,RE15-1-H,COY DR/DE LA CUMBRE PL,LOS ANGELES,UNKNOWN,-118.4457462,34.13567449,4,90.21305016, 
-118.458133200487111,34.13980586985835,1217,0,2277031900,Not Classified,Owned,General Services,RE40-1-H,LIMESTONE PL/STONE CANYON AVE,LOS ANGELES,UNKNOWN,-118.4581332,34.13980587,4,67.60254996, 
-118.45815499990411,34.139865059860043,1218,0,2277031901,Not Classified,Owned,General Services,RE40-1-H,LIMESTONE PL/STONE CANYON AVE,LOS ANGELES,UNKNOWN,-118.458155,34.13986506,4,67.61954994, 
-118.461070599838024,34.135038570134945,1219,0,2278016900,Not Classified,Owned,General Services,RE15-1-H,FUTURE ST/LOADSTONE DR,LOS ANGELES,UNKNOWN,-118.4610706,34.13503857,4,3317.537198, 
-118.421715500665542,34.215830880466129,1220,0,2303001900,Not Classified,Owned,General Services,RA-1,STRATHERN ST/NAGLE AVE,LOS ANGELES,UNKNOWN,-118.4217155,34.21583088,2,137.6567147, 
-118.421715400054239,34.215630069888661,1221,0,2303001901,Not Classified,Owned,General Services,RS-1,LONGRIDGE AVE/BLYTHE ST,LOS ANGELES,UNKNOWN,-118.4217154,34.21563007,2,283.5352627, 
-118.42121339991391,34.215898189876462,1222,0,2303001902,Not Classified,Owned,General Services,RA-1,STRATHERN ST/LLOYD AVE,LOS ANGELES,UNKNOWN,-118.4212134,34.21589819,2,900.2214977, 
-118.421738100481477,34.214622259914869,1223,0,2303002900,Not Classified,Owned,General Services,RA-1,LONGRIDGE AVE/BLYTHE ST,LOS ANGELES,UNKNOWN,-118.4217381,34.21462226,2,186.2673005, 
-118.421726599350862,34.214660729891257,1224,0,2303002901,Not Classified,Owned,General Services,RA-1,LONGRIDGE AVE/BLYTHE ST,LOS ANGELES,UNKNOWN,-118.4217266,34.21466073,2,11.62939997, 
-118.421715100016939,34.214844840579936,1225,0,2303002902,Not Classified,Owned,General Services,RS-1,LONGRIDGE AVE/BLYTHE ST,LOS ANGELES,UNKNOWN,-118.4217151,34.21484484,2,258.3925498, 
-118.420712099561158,34.21404274039606,1226,0,2303003900,Not Classified,Owned,General Services,RA-1,LLOYD AVE/FULTON AVE,LOS ANGELES,UNKNOWN,-118.4207121,34.21404274,2,36.1660499, 
-118.420712400496797,34.214611590356242,1227,0,2303003901,Not Classified,Owned,General Services,RA-1,LLOYD AVE/FULTON AVE,LOS ANGELES,UNKNOWN,-118.4207124,34.21461159,2,552.3113994, 
-118.420712500209802,34.214821839765655,1228,0,2303003902,Not Classified,Owned,General Services,RA-1,LLOYD AVE/FULTON AVE,LOS ANGELES,UNKNOWN,-118.4207125,34.21482184,2,180.1822994, 
-118.42071289996008,34.215667190405654,1229,0,2303003903,Not Classified,Owned,General Services,RA-1,LLOYD AVE/STRATHERN ST,LOS ANGELES,UNKNOWN,-118.4207129,34.21566719,2,495.0066045, 
-118.418169799933466,34.208982690212743,1230,0,2303017900,Not Classified,Owned,General Services,RA-1,KESWICK ST/ETHEL AVE,LOS ANGELES,UNKNOWN,-118.4181698,34.20898269,2,449.9731997, 
-118.418404000609485,34.220629130216949,1231,0,2304004900,Not Classified,Owned,General Services,R1-1,ETHEL AVE/BURTON ST,LOS ANGELES,UNKNOWN,-118.418404,34.22062913,2,342.0914506, 
-118.421623700030025,34.217877370485596,1232,0,2304008900,Not Classified,Owned,General Services,RS-1,WILLARD ST/LLOYD AVE,LOS ANGELES,UNKNOWN,-118.4216237,34.21787737,2,884.7214, 
-118.421712999755769,34.21885935032266,1233,0,2304008901,Not Classified,Owned,General Services,RS-1,LONGRIDGE AVE/WILLARD ST,LOS ANGELES,UNKNOWN,-118.421713,34.21885935,2,33.54990624, 
-118.420767100711089,34.218611300224126,1234,0,2304008902,Not Classified,Owned,General Services,RS-1,LLOYD AVE/WILLARD ST,LOS ANGELES,UNKNOWN,-118.4207671,34.2186113,2,90.73509975, 
-118.39785730044315,34.210342920130472,1235,0,2307010901,Not Classified,Owned,General Services,R1-1,KESWICK ST/VANTAGE AVE,LOS ANGELES,UNKNOWN,-118.3978573,34.21034292,2,412.143949, 
-118.397625300639575,34.210398649338153,1236,0,2307010904,Not Classified,Owned,General Services,R3-1,KESWICK ST/VANTAGE AVE,LOS ANGELES,UNKNOWN,-118.3976253,34.21039865,2,67.10624995, 
-118.398089200533761,34.210297840191203,1237,0,2307014900,Not Classified,Owned,General Services,R1-1,KESWICK ST/ST CLAIR AVE,LOS ANGELES,UNKNOWN,-118.3980892,34.21029784,2,90.00239988, 
-118.398122100432715,34.2094243304469,1238,0,2307014901,Not Classified,Owned,General Services,R1-1,LULL ST/ST CLAIR AVE,LOS ANGELES,UNKNOWN,-118.3981221,34.20942433,2,89.8962004, 
-118.398222499742118,34.209387340158287,1239,0,2307014902,Not Classified,Owned,General Services,R1-1,LULL ST/ST CLAIR AVE,LOS ANGELES,UNKNOWN,-118.3982225,34.20938734,2,128.3409496, 
-118.399464099923875,34.209343330222154,1240,0,2307015901,Not Classified,Owned,General Services,PF-1XL,LULL ST/ST CLAIR AVE,LOS ANGELES,UNKNOWN,-118.3994641,34.20934333,2,118.7981994, 
-118.398286599927545,34.209342070269209,1241,0,2307015902,Not Classified,Owned,General Services,R1-1,LULL ST/ST CLAIR AVE,LOS ANGELES,UNKNOWN,-118.3982866,34.20934207,2,89.98664998, 
-118.40770110041197,34.21786604988462,1242,0,2308008900,Not Classified,Owned,General Services,OS-1XL,POTTER AVE/LORNE ST,LOS ANGELES,UNKNOWN,-118.4077011,34.21786605,2,118.7126001, 
-118.407832099933245,34.217865900577443,1243,0,2308009901,Not Classified,Owned,General Services,OS-1XL,POTTER AVE/LORNE ST,LOS ANGELES,UNKNOWN,-118.4078321,34.2178659,2,119.0828001, 
-118.407580999251749,34.214887659829202,1244,0,2308011900,Not Classified,Owned,General Services,OS-1XL,BLYTHE ST/BABCOCK AVE,LOS ANGELES,UNKNOWN,-118.407581,34.21488766,2,91.07850019, 
-118.40690859948181,34.214888059481382,1245,0,2308011901,Not Classified,Owned,General Services,OS-1XL,BLYTHE ST/BABCOCK AVE,LOS ANGELES,UNKNOWN,-118.4069086,34.21488806,2,1128.481653, 
-118.406258700713096,34.214888549760985,1246,0,2308011902,Not Classified,Owned,General Services,OS-1XL,BLYTHE ST/VANSCOY AVE,LOS ANGELES,UNKNOWN,-118.4062587,34.21488855,2,57.16483759, 
-118.394255199884299,34.214812320161919,1247,0,2310021901,Not Classified,Owned,General Services,R1-1,BLYTHE ST/BEN AVE,LOS ANGELES,UNKNOWN,-118.3942552,34.21481232,6,744.3472999, 
-118.394351200143745,34.215214639296057,1248,0,2310021902,Not Classified,Owned,General Services,R1-1-CUGU,BEN AVE/STRATHERN ST,LOS ANGELES,UNKNOWN,-118.3943512,34.21521464,6,869.2719999, 
-118.380702299226442,34.213648560370977,1249,0,2311010900,Not Classified,Owned,General Services,R1-1-CUGU,FARMDALE AVE/ARMINTA ST,LOS ANGELES,NORTH HOLLYWOOD,-118.3807023,34.21364856,6,119.8770999, 
-118.37234370008656,34.202108949529631,1250,0,2315025900,Not Classified,Owned,General Services,R3-1,CANTLAY ST/CASE AVE,LOS ANGELES,UNKNOWN,-118.3723437,34.20210895,2,100.0000005, 
-118.388901200366746,34.209899570115567,1251,0,2317008900,Not Classified,Owned,General Services,R1-1-CUGU,SIMPSON AVE/STAGG ST,LOS ANGELES,UNKNOWN,-118.3889012,34.20989957,6,90.00160012, 
-118.388955799969708,34.209758119670639,1252,0,2317008903,Not Classified,Owned,General Services,R1-1-CUGU,SIMPSON AVE/STAGG ST,LOS ANGELES,UNKNOWN,-118.3889558,34.20975812,6,299.9909998, 
-118.392162400156764,34.207555930609367,1253,0,2317011903,Not Classified,Owned,General Services,R1-1,RADFORD AVE/COVELLO ST,LOS ANGELES,NORTH HOLLYWOOD,-118.3921624,34.20755593,2,0.99504999, 
-118.392165400529819,34.20711492989355,1254,0,2317011904,Not Classified,Owned,General Services,R1-1,RADFORD AVE/COVELLO ST,LOS ANGELES,NORTH HOLLYWOOD,-118.3921654,34.20711493,2,110.9837001, 
-118.400887299930176,34.196210649956676,1255,0,2321010900,Not Classified,Owned,General Services,OS-1XL,LAURELGROVE AVE/CREWE ST,LOS ANGELES,NORTH HOLLYWOOD,-118.4008873,34.19621065,2,924.6535485, 
-118.400888000616121,34.194865479713151,1256,0,2321013900,Not Classified,Owned,General Services,OS-1XL,LAURELGROVE AVE/HARTLAND ST,LOS ANGELES,NORTH HOLLYWOOD,-118.400888,34.19486548,2,255.0547002, 
-118.400887799393502,34.195384939822418,1257,0,2321013901,Not Classified,Owned,General Services,OS-1XL,LAURELGROVE AVE/DEHOUGNE ST,LOS ANGELES,NORTH HOLLYWOOD,-118.4008878,34.19538494,2,879.31255, 
-118.412022400272164,34.20028257970111,1258,0,2324006900,Not Classified,Owned,General Services,RD1.5-1,BARBARA ANN ST/BELLAIRE AVE,LOS ANGELES,UNKNOWN,-118.4120224,34.20028258,2,60.14610012, 
-118.41101150003179,34.200282770646126,1259,0,2324006903,Not Classified,Owned,General Services,RD1.5-1,BARBARA ANN ST/BELLAIRE AVE,LOS ANGELES,UNKNOWN,-118.4110115,34.20028277,2,60.61160003, 
-118.418500100581966,34.200159009966292,1260,0,2327013901,Not Classified,Owned,General Services,R3-1,BARBARA ANN ST/ETHEL AVE,LOS ANGELES,UNKNOWN,-118.4185001,34.20015901,2,450.5595009, 
-118.418499699933349,34.199419870201268,1261,0,2327013902,Not Classified,Owned,General Services,R3-1,GAULT ST/ETHEL AVE,LOS ANGELES,UNKNOWN,-118.4184997,34.19941987,2,1629.772999, 
-118.376540099986258,34.181240450106827,1262,0,2336031900,Not Classified,Owned,General Services,R1-1,CALVERT ST/ELMER AVE,LOS ANGELES,UNKNOWN,-118.3765401,34.18124045,2,197.9249991, 
-118.375778399592235,34.181466870296433,1263,0,2336031901,Not Classified,Owned,General Services,R1-1,KLUMP ST/CALVERT ST,LOS ANGELES,UNKNOWN,-118.3757784,34.18146687,2,165.2403829, 
-118.403541800035185,34.177275669673307,1264,0,2340014901,Not Classified,Owned,General Services,R1-1,CALIFA ST/RHODES AVE,LOS ANGELES,UNKNOWN,-118.4035418,34.17727567,2,190.5647004, 
-118.411743199390273,34.172968769437794,1265,0,2341023900,Not Classified,Owned,General Services,R1-1,MARTHA ST/COLDWATER CANYON AVE,LOS ANGELES,UNKNOWN,-118.4117432,34.17296877,2,25.00999995, 
-118.427977000740995,34.176226090308589,1266,0,2343002900,Not Classified,Owned,General Services,R1-1,ALLOTT AVE/HATTERAS ST,LOS ANGELES,UNKNOWN,-118.427977,34.17622609,2,186.7456006, 
-118.427899300062151,34.17618387049864,1267,0,2343002901,Not Classified,Owned,General Services,R1-1,ALLOTT AVE/EMELITA ST,LOS ANGELES,UNKNOWN,-118.4278993,34.17618387,2,5.98999998,None
-118.430215699447075,34.176053949824045,1268,0,2343005900,Not Classified,Owned,General Services,R1-1,BUFFALO AVE/EMELITA ST,LOS ANGELES,UNKNOWN,-118.4302157,34.17605395,2,25.14510012, 
-118.425138499614661,34.169463000290037,1269,0,2344011902,Not Classified,Owned,General Services,R1-1,CUMPSTON ST/GREENBUSH AVE,LOS ANGELES,VAN NUYS,-118.4251385,34.169463,4,75.10169976, 
-118.425034799894888,34.169493210348016,1270,0,2344011904,Not Classified,Owned,General Services,R1-1,CUMPSTON ST/GREENBUSH AVE,LOS ANGELES,VAN NUYS,-118.4250348,34.16949321,4,184.8934494, 
-118.425708099776756,34.16578319001983,1271,0,2344022900,Not Classified,Owned,General Services,R1-1,MCCORMICK ST/SUNNYSLOPE AVE,LOS ANGELES,UNKNOWN,-118.4257081,34.16578319,4,412.2140568, 
-118.391926300442208,34.166695619914634,1272,0,2348012900,Not Classified,Owned,General Services,R3-1,WEDDINGTON ST/RADFORD AVE,LOS ANGELES,VALLEY VILLAGE,-118.3919263,34.16669562,2,129.3518501, 
-118.407652799795784,34.159929069407838,1273,0,2357025900,Not Classified,Owned,General Services,R1-1,MORRISON ST/BEEMAN AVE,LOS ANGELES,UNKNOWN,-118.4076528,34.15992907,2,9.000965676, 
-118.407865099545191,34.160310939785674,1274,0,2357025901,Not Classified,Owned,General Services,R1-1,MORRISON ST/BEEMAN AVE,LOS ANGELES,UNKNOWN,-118.4078651,34.16031094,2,358.1049001, 
-118.407672700174274,34.160115919840386,1275,0,2357025902,Not Classified,Owned,General Services,R1-1,BEEMAN AVE/MORRISON ST,LOS ANGELES,UNKNOWN,-118.4076727,34.16011592,2,404.9748997, 
-118.420331999906566,34.164007949868477,1276,0,2358001900,Not Classified,Owned,General Services,R1-1,HARTSOOK ST/ETHEL AVE,LOS ANGELES,UNKNOWN,-118.420332,34.16400795,4,29.94772494, 
-118.41924039951266,34.164008159477994,1277,0,2358001902,Not Classified,Owned,General Services,R1-1,HARTSOOK ST/ETHEL AVE,LOS ANGELES,UNKNOWN,-118.4192404,34.16400816,4,90.94440005, 
-118.421955899717048,34.16396184022188,1278,0,2358003900,Not Classified,Owned,General Services,RE11-1,SEE MAP FOR DETAILS,LOS ANGELES,UNKNOWN,-118.4219559,34.16396184,4,19.90509507, 
-118.42150979994021,34.163962000030686,1279,0,2358003902,Not Classified,Owned,General Services,RE11-1,LONGRIDGE AVE/HARTSOOK ST,LOS ANGELES,UNKNOWN,-118.4215098,34.163962,4,9.978218753, 
-118.36961020033884,34.209809330249087,1280,0,2409015900,Not Classified,Owned,General Services,R1-1,KESWICK ST/VINELAND AVE,LOS ANGELES,UNKNOWN,-118.3696102,34.20980933,2,59.99999981, 
-118.369455499667126,34.209421760026487,1281,0,2409015901,Not Classified,Owned,General Services,R1-1,LULL ST/CLEON AVE,LOS ANGELES,UNKNOWN,-118.3694555,34.20942176,2,44.15940013, 
-118.369413399223035,34.209357099812642,1282,0,2409016900,Not Classified,Owned,General Services,R1-1,LULL ST/RIVERTON AVE,LOS ANGELES,UNKNOWN,-118.3694134,34.2093571,2,155.4293995, 
-118.368945500029184,34.209316709997921,1283,0,2409016901,Not Classified,Owned,General Services,R1-1,LULL ST/RIVERTON AVE,LOS ANGELES,UNKNOWN,-118.3689455,34.20931671,2,26.99534991,None
-118.368549699620047,34.208946470117873,1284,0,2409016902,OPLA,Owned,General Services,R1-1,LULL ST/RIVERTON AVE,Los Angeles,LOS ANGELES,-118.3685497,34.20894647,2,2606.8699, 
-118.369253100250461,34.207523470526077,1285,0,2410001900,Not Classified,Owned,General Services,R1-1,VINELAND AVE/SATICOY ST,LOS ANGELES,UNKNOWN,-118.3692531,34.20752347,2,9.777400041,None
-118.368650900226712,34.182966940445169,1286,0,2414003904,OPLA,Owned,General Services,R1-1,6181 ERWIN ST,Los Angeles,LOS ANGELES,-118.3686509,34.18296694,2,497.5244501,None
-118.368731899519247,34.183021590148456,1287,0,2414003905,Not Classified,Owned,General Services,R1-1,ERWIN ST/CLEON AVE,LOS ANGELES,UNKNOWN,-118.3687319,34.18302159,2,30.01504989,None
-118.368649400040184,34.182982059407244,1288,0,2414003906,Not Classified,Owned,General Services,R1-1,ERWIN ST/CLEON AVE,LOS ANGELES,UNKNOWN,-118.3686494,34.18298206,2,49.0440001,None
-118.362744199654202,34.181592820207236,1289,0,2414015901,Not Classified,Owned,General Services,R1-1,WILLOW CREST AVE/OXNARD ST,LOS ANGELES,UNKNOWN,-118.3627442,34.18159282,2,149.9854497,None
-118.363260800112826,34.182116879594126,1290,0,2414015902,Not Classified,Owned,General Services,R1-1,DELANO ST/CARTWRIGHT AVE,LOS ANGELES,UNKNOWN,-118.3632608,34.18211688,2,89.98529999,None
-118.36269020012584,34.181657690472548,1291,0,2414015903,Not Classified,Owned,General Services,R1-1,WILLOW CREST AVE/OXNARD ST,LOS ANGELES,UNKNOWN,-118.3626902,34.18165769,2,1671.75675, 
-118.362687999253396,34.185833929490755,1292,0,2414017900,Not Classified,Owned,General Services,RD1.5-1,WILLOW CREST AVE/FRIAR ST,LOS ANGELES,UNKNOWN,-118.362688,34.18583393,2,30.00000007, 
-118.36268729946579,34.185414650628722,1293,0,2414017901,Not Classified,Owned,General Services,R1-1,WILLOW CREST AVE/FRIAR ST,LOS ANGELES,UNKNOWN,-118.3626873,34.18541465,2,371.4280516,None
-118.362683099841817,34.177605169474269,1294,0,2415014901,OPLA,Owned,General Services,R3-1,WILLOW CREST AVE/OXNARD ST,Los Angeles,LOS ANGELES,-118.3626831,34.17760517,2,176.9675972,None
-118.465311499581972,34.313378210217287,1295,0,2501010900,Not Classified,Owned,General Services,RA-1-K,LARKSPUR ST/NORRIS AVE,LOS ANGELES,UNKNOWN,-118.4653115,34.31337821,7,1893.627149,None
-118.46692029961082,34.311804400442945,1296,0,2501010901,Not Classified,Owned,General Services,RA-1-K,LARKSPUR ST/BRADLEY AVE,LOS ANGELES,UNKNOWN,-118.4669203,34.3118044,7,1172.787799,None
-118.454328899937565,34.31666180970619,1297,0,2502010900,Not Classified,Owned,General Services,RA-1-K,ROSALES ST/BORDEN AVE,LOS ANGELES,UNKNOWN,-118.4543289,34.31666181,7,2238.701872,None
-118.453565199893717,34.317330639627109,1298,0,2502010901,Not Classified,Owned,General Services,RA-1-K,ROSALES ST/PHILLIPPI AVE,LOS ANGELES,SYLMAR,-118.4535652,34.31733064,7,1048.2877,None
-118.435848200058857,34.318436840521699,1299,0,2503007900,Not Classified,Owned,General Services,RA-1-K,LYLE ST/FENTON AVE,LOS ANGELES,UNKNOWN,-118.4358482,34.31843684,7,1185.468201,None
-118.435331799924541,34.317546199925225,1300,0,2503007901,Not Classified,Owned,General Services,RS-1,PADDOCK ST/GLADSTONE AVE,LOS ANGELES,UNKNOWN,-118.4353318,34.3175462,7,20.08869998, 
-118.455200799362458,34.309348670147912,1301,0,2505004900,Not Classified,Owned,General Services,RA-1,DE GARMO AVE/RYAN ST,LOS ANGELES,UNKNOWN,-118.4552008,34.30934867,7,1037.734449,None
-118.44626090040218,34.307383289938976,1302,0,2505021900,Not Classified,Owned,General Services,R1-1,FELLOWS AVE/ORO GRANDE ST,LOS ANGELES,UNKNOWN,-118.4462609,34.30738329,7,1189.963444,None
-118.448012700546158,34.301825779965093,1303,0,2508021900,Not Classified,Owned,General Services,R1-1,BERG ST/HERRICK AVE,LOS ANGELES,UNKNOWN,-118.4480127,34.30182578,7,1797.940802,None
-118.44380589995211,34.299709000310038,1304,0,2508023901,Not Classified,Owned,General Services,R1-1,HERRON ST/DE FOE AVE,LOS ANGELES,UNKNOWN,-118.4438059,34.299709,7,183.1623993, 
-118.443343699670422,34.300177859562396,1305,0,2508023902,Not Classified,Owned,General Services,R1-1,HERRON ST/DE FOE AVE,LOS ANGELES,UNKNOWN,-118.4433437,34.30017786,7,72.38250026, 
-118.423444000307683,34.314595949861065,1306,0,2510024900,Not Classified,Owned,General Services,R1-1,AZTEC ST/KISMET AVE,LOS ANGELES,UNKNOWN,-118.423444,34.31459595,7,89.87160026,None
-118.423649299486073,34.314887889916449,1307,0,2510024901,Not Classified,Owned,General Services,R1-1,KISMET AVE/AZTEC ST,LOS ANGELES,UNKNOWN,-118.4236493,34.31488789,7,308.4817276,None
-118.421092500151389,34.307747879639088,1308,0,2512008901,Not Classified,Owned,General Services,RS-1,GRIDLEY ST/WHEELER AVE,LOS ANGELES,UNKNOWN,-118.4210925,34.30774788,7,58.77126528,None
-118.421606299662983,34.308131819767013,1309,0,2512009901,Not Classified,Owned,General Services,(T)(Q)R1-1,WHEELER AVE/LAZARD ST,LOS ANGELES,UNKNOWN,-118.4216063,34.30813182,7,1236.018122, 
-118.43750159964496,34.300606859964105,1310,0,2517011900,Not Classified,Owned,General Services,R1-1,FELLOWS AVE/HUBBARD ST,LOS ANGELES,UNKNOWN,-118.4375016,34.30060686,7,173.5055006, 
-118.436649100236949,34.301103920192865,1311,0,2517011901,Not Classified,Owned,General Services,R1-1,WARREN ST/HUBBARD ST,LOS ANGELES,UNKNOWN,-118.4366491,34.30110392,7,29.11240016, 
-118.420516300066907,34.27991222018774,1312,0,2524029901,Not Classified,Owned,General Services,R1-1-CUGU,EUSTACE ST/DE GARMO AVE,LOS ANGELES,UNKNOWN,-118.4205163,34.27991222,7,80.94815631,None
-118.413888999719546,34.306556840143642,1313,0,2525010900,Not Classified,Owned,General Services,RS-1,ROMONT ST/CRANSTON AVE,LOS ANGELES,UNKNOWN,-118.413889,34.30655684,7,15.63060512, 
-118.41417189986376,34.30504476073547,1314,0,2525010901,Not Classified,Owned,General Services,RS-1,ALEXANDER ST/CRANSTON AVE,LOS ANGELES,UNKNOWN,-118.4141719,34.30504476,7,157.9882936,None
-118.402069799949373,34.276365369403152,1315,0,2532023904,Not Classified,Owned,General Services,RS-1-CUGU,JOUETT ST/DORNFIELD AVE,LOS ANGELES,PACOIMA,-118.4020698,34.27636537,7,1979.125451,None
-118.367174899942938,34.24541881989191,1316,0,2542024900,OPLA,Owned,General Services,RA-1-K,ORCAS AVE/STONEHURST AVE,Los Angeles,LOS ANGELES,-118.3671749,34.24541882,7,1693.043173,None
-118.365994599897874,34.245571880059337,1317,0,2542024901,OPLA,Owned,General Services,RA-1-K,HELEN AVE/SUNLAND BLVD,Los Angeles,LOS ANGELES,-118.3659946,34.24557188,7,4278.535352, 
-118.356917499447633,34.250756650339397,1318,0,2543028900,Not Classified,Owned,General Services,RA-1-K,VALLEY GLOW DR/WHEATLAND AVE,LOS ANGELES,UNKNOWN,-118.3569175,34.25075665,7,901.5053052, 
-118.345039999913837,34.257687629373756,1319,0,2549025900,Not Classified,Owned,General Services,RA-1-K,MUSTANG WAY/JOHANNA AVE,LOS ANGELES,UNKNOWN,-118.34504,34.25768763,7,726.7352019,None
-118.345018199598513,34.257571709623484,1320,0,2549025901,Not Classified,Owned,General Services,RA-1-K,MUSTANG WAY/JOHANNA AVE,LOS ANGELES,UNKNOWN,-118.3450182,34.25757171,7,681.9243654, 
-118.349537900474033,34.274423410516867,1321,0,2550020900,Not Classified,Owned,General Services,RA-1-K,DOMINICA AVE/JIMENEZ ST,LOS ANGELES,UNKNOWN,-118.3495379,34.27442341,7,382.3530776,None
-118.347413400098446,34.274862640182903,1322,0,2550020902,Not Classified,Owned,General Services,A2-1-K,ESKO AVE/JIMENEZ ST,LOS ANGELES,UNKNOWN,-118.3474134,34.27486264,7,45.43950002,None
-118.300987600239225,34.272336089925474,1323,0,2552019900,Not Classified,Owned,General Services,RA-1,DENIVELLE RD/DENIVELLE PL,LOS ANGELES,UNKNOWN,-118.3009876,34.27233609,7,164.2647624,None
-118.308563599680028,34.266699559997548,1324,0,2556003900,Not Classified,Owned,General Services,R1-1-RFA,LANGMUIR AVE/WENTWORTH ST,LOS ANGELES,UNKNOWN,-118.3085636,34.26669956,7,200.3233496,None
-118.317948199740201,34.258245740267085,1325,0,2560005900,Not Classified,Owned,General Services,RD5-1,FOOTHILL BLVD/FLORALITA AVE,LOS ANGELES,UNKNOWN,-118.3179482,34.25824574,7,59.99094992,None
-118.317948600388846,34.258190779987579,1326,0,2560005901,Not Classified,Owned,General Services,RD5-1,FOOTHILL BLVD/FLORALITA AVE,LOS ANGELES,UNKNOWN,-118.3179486,34.25819078,7,59.99095004, 
-118.321741000057486,34.255398159672396,1327,0,2561003902,Not Classified,Owned,General Services,R1-1,APPERSON ST/SHERMAN GROVE AVE,LOS ANGELES,SUNLAND-TUJUNGA,-118.321741,34.25539816,7,191.6826699,None
-118.29358940074934,34.261784939899272,1328,0,2566016900,OPLA,Owned,General Services,R1-1,TUJUNGA CANYON BLVD/MOUNTAIR AVE,Los Angeles,LOS ANGELES,-118.2935894,34.26178494,7,2937.66515,None
-118.274287899415754,34.247717350050131,1329,0,2570014902,Not Classified,Owned,General Services,R1-1-RFA,GREELEY ST/ZITTO LN,LOS ANGELES,UNKNOWN,-118.2742879,34.24771735,7,100.8010569,None
-118.267502100319703,34.250284909826533,1330,0,2571002901,OPLA,Owned,General Services,R1-1-RFA,10014 AMANITA AVE,LOS ANGELES,LOS ANGELES,-118.2675021,34.25028491,7,2503.247937,None
-118.352625600548407,34.214395600403165,1331,0,2571002902,OPLA,Owned,General Services,R1-1-RFA,10014 ARMINTA ST,LOS ANGELES,Los Angeles,-118.3526256,34.2143956,7,254.3311198, 
-118.528406700161369,34.289963299861725,1332,0,2601062900,Not Classified,Owned,General Services,RE20-1-O-K,ZELZAH AVE/REXBON RD,LOS ANGELES,UNKNOWN,-118.5284067,34.2899633,12,7247.29708, 
-118.433259700076107,34.244758759954166,1333,0,2621013900,Not Classified,Owned,General Services,R1-1,WOODALE AVE/GLAMIS ST,LOS ANGELES,LOS ANGELES,-118.4332597,34.24475876,6,48.13259984,None
-118.434037400363664,34.245533619499021,1334,0,2621013901,Not Classified,Owned,General Services,RA-1,WOODALE AVE/GLAMIS ST,LOS ANGELES,LOS ANGELES,-118.4340374,34.24553362,6,1249.609552,None
-118.427847599322604,34.242174259798304,1335,0,2621023900,Not Classified,Owned,General Services,RA-1,STANWIN AVE/KAMLOOPS ST,LOS ANGELES,UNKNOWN,-118.4278476,34.24217426,6,80.94169976,None
-118.427914699881086,34.242125290033997,1336,0,2621023901,Not Classified,Owned,General Services,RA-1,STANWIN AVE/KAMLOOPS ST,LOS ANGELES,UNKNOWN,-118.4279147,34.24212529,6,81.05334988, 
-118.414131700254828,34.253517340244933,1337,0,2623023901,Not Classified,Owned,General Services,R1-1-CUGU,KAMLOOPS ST/TELFAIR AVE,LOS ANGELES,UNKNOWN,-118.4141317,34.25351734,7,53.95359979,None
-118.414879400405127,34.254089809838163,1338,0,2623023904,Not Classified,Owned,General Services,R1-1-CUGU,KELOWNA ST/TELFAIR AVE,LOS ANGELES,UNKNOWN,-118.4148794,34.25408981,7,450.2465872,None
-118.410872699540604,34.251241940073427,1339,0,2624005900,Not Classified,Owned,General Services,R1-1-CUGU,TAMARACK AVE/WINGO ST,LOS ANGELES,UNKNOWN,-118.4108727,34.25124194,7,24.04834369,None
-118.411282200156137,34.251640730464196,1340,0,2624005901,OPLA,Owned,General Services,R1-1,9907 TAMARACK AVE,Los Angeles,LOS ANGELES,-118.4112822,34.25164073,7,346.4956039,None
-118.409017799751453,34.249545130146124,1341,0,2624006904,Not Classified,Owned,General Services,R1-1-CUGU,TAMARACK AVE/MONTAGUE ST,LOS ANGELES,UNKNOWN,-118.4090178,34.24954513,7,99.52424926,None
-118.413557100069852,34.24476330976897,1342,0,2626011900,Not Classified,Owned,General Services,RS-1-CUGU,MINEOLA ST/AMBOY AVE,LOS ANGELES,UNKNOWN,-118.4135571,34.24476331,7,26.89200014,None
-118.413615300120483,34.244818469663535,1343,0,2626011901,Not Classified,Owned,General Services,RS-1-CUGU,MINEOLA ST/AMBOY AVE,LOS ANGELES,UNKNOWN,-118.4136153,34.24481847,7,25.16285017,None
-118.423539700529872,34.231163519898779,1344,0,2627008903,Not Classified,Owned,General Services,OS-1XL,URBANA AVE/OTTOMAN ST,LOS ANGELES,UNKNOWN,-118.4235397,34.23116352,6,1716.156003, 
-118.424197499981489,34.231785519892007,1345,0,2627008904,Not Classified,Owned,General Services,OS-1XL,URBANA AVE/OTTOMAN ST,LOS ANGELES,UNKNOWN,-118.4241975,34.23178552,6,89.95280028,None
-118.422106399866479,34.231167699838949,1346,0,2627008905,Not Classified,Owned,General Services,OS-1XL,RANGOON ST/URBANA AVE,LOS ANGELES,UNKNOWN,-118.4221064,34.2311677,6,1948.726204,None
-118.440628500401687,34.243171660086361,1347,0,2644013900,Not Classified,Owned,General Services,A2-1,REMINGTON ST/ CANTERBURY AVE,LOS ANGELES,UNKNOWN,-118.4406285,34.24317166,6,1000.393799, 
-118.432646599894682,34.248669339366415,1348,0,2645008900,OPLA,Owned,General Services,R1-1,9818 ARLETA,Los Angeles,LOS ANGELES,-118.4326466,34.24866934,6,309.9665004, 
-118.440632000238026,34.251200309530525,1349,0,2645021902,Not Classified,Owned,General Services,RA-1,HOYT ST/BEACHY AVE,LOS ANGELES,UNKNOWN,-118.440632,34.25120031,6,1079.669836, 
-118.456451000014695,34.265375889767427,1350,0,2648003901,Not Classified,Owned,General Services,RS-1,WOLFSKILL ST/FOX ST,LOS ANGELES,UNKNOWN,-118.456451,34.26537589,7,90.73395021,None
-118.457242300795656,34.258436460117665,1351,0,2648008900,Not Classified,Owned,General Services,A2-1-O,SALOMA AVE/BLACKHAWK ST,LOS ANGELES,UNKNOWN,-118.4572423,34.25843646,7,735.7585497, 
-118.452555200663596,34.258994469523316,1352,0,2648010902,Not Classified,Owned,General Services,RS-1-O,HIAWATHA ST/CEDROS AVE,LOS ANGELES,UNKNOWN,-118.4525552,34.25899447,7,90.36512797,None
-118.45559770020779,34.248003589469732,1353,0,2650012900,Not Classified,Owned,General Services,RS-1,KINZIE ST/WILLIS AVE,LOS ANGELES,UNKNOWN,-118.4555977,34.24800359,7,122.4512247, 
-118.454888200016612,34.248059079905417,1354,0,2650012901,Not Classified,Owned,General Services,RA-1,KINZIE ST/WILLIS AVE,LOS ANGELES,UNKNOWN,-118.4548882,34.24805908,7,1317.4049,None
-118.457806400573261,34.240074320006116,1355,0,2650033901,Not Classified,Owned,General Services,RA-1,VINCENNES ST/NATICK AVE,LOS ANGELES,UNKNOWN,-118.4578064,34.24007432,7,363.0726998,None
-118.471833200272712,34.249380869993928,1356,0,2656001900,Not Classified,Owned,General Services,PF-1XL,ORION AVE/LASSEN ST,LOS ANGELES,UNKNOWN,-118.4718332,34.24938087,7,475.5667008,None
-118.471829599825043,34.249749529494544,1357,0,2656001901,Not Classified,Owned,General Services,PF-1XL,ORION AVE/LASSEN ST,LOS ANGELES,UNKNOWN,-118.4718296,34.24974953,7,330.3336504, 
-118.457602000608475,34.274734950126472,1358,0,2664002900,Not Classified,Owned,General Services,R1-1,ALEXANDER ST/BARTEE AVE,LOS ANGELES,UNKNOWN,-118.457602,34.27473495,7,179.9657435, 
-118.477515199853315,34.227005250121714,1359,0,2673006900,Not Classified,Owned,General Services,RA-1,DEMPSEY AVE/NAPA ST,LOS ANGELES,UNKNOWN,-118.4775152,34.22700525,12,854.881251,None
-118.477064700128224,34.226604729771623,1360,0,2673006901,Not Classified,Owned,General Services,RA-1,NAPA ST/DEMPSEY AVE,LOS ANGELES,UNKNOWN,-118.4770647,34.22660473,12,815.1731996, 
-118.480617299921676,34.225649469405596,1361,0,2673008901,Not Classified,Owned,General Services,(T)RS-1,MALDEN ST/GLORIA AVE,LOS ANGELES,UNKNOWN,-118.4806173,34.22564947,12,2002.841493,None
-118.477377000335068,34.225899180368003,1362,0,2673009901,Not Classified,Owned,General Services,RA-1,DEMPSEY AVE/NAPA ST,LOS ANGELES,UNKNOWN,-118.477377,34.22589918,12,683.5219494,None
-118.477359700579328,34.226329139885273,1363,0,2673009902,Not Classified,Owned,General Services,RA-1,DEMPSEY AVE/NAPA ST,LOS ANGELES,UNKNOWN,-118.4773597,34.22632914,12,425.4704999,None
-118.47807929963092,34.225542509933732,1364,0,2673009903,Not Classified,Owned,General Services,RS-1,MALDEN ST/DEMPSEY AVE,LOS ANGELES,UNKNOWN,-118.4780793,34.22554251,12,6504.405167, 
-118.500141899652689,34.255522609909598,1365,0,2685019901,Not Classified,Owned,General Services,C2-1VL,FORBES AVE/WHITAKER AVE,LOS ANGELES,UNKNOWN,-118.5001419,34.25552261,12,308.7815999,None
-118.486203099816805,34.234627940256345,1366,0,2688003901,Not Classified,Owned,General Services,PF-1,SWINTON AVE/RAYEN ST,LOS ANGELES,UNKNOWN,-118.4862031,34.23462794,12,774.3742497,None
-118.486225500206743,34.233836650259278,1367,0,2688005900,Not Classified,Owned,General Services,PF-1,SWINTON AVE/RAYEN ST,LOS ANGELES,UNKNOWN,-118.4862255,34.23383665,12,17.98293756,None
-118.486298300575669,34.23383710997873,1368,0,2688005901,Not Classified,Owned,General Services,RS-1,SWINTON AVE/RAYEN ST,LOS ANGELES,UNKNOWN,-118.4862983,34.23383711,12,78.00602178,None
-118.487290700012764,34.23384339974217,1369,0,2688005902,Not Classified,Owned,General Services,RS-1,VALJEAN AVE/RAYEN ST,LOS ANGELES,UNKNOWN,-118.4872907,34.2338434,12,29.93975009, 
-118.487224600177541,34.233842980127527,1370,0,2688005903,Not Classified,Owned,General Services,RS-1,VALJEAN AVE/RAYEN ST,LOS ANGELES,UNKNOWN,-118.4872246,34.23384298,12,89.9698624,None
-118.48894470057175,34.225165239846781,1371,0,2689002905,Not Classified,Owned,General Services,RA-1,GOTHIC AVE/CHASE ST,LOS ANGELES,UNKNOWN,-118.4889447,34.22516524,12,549.5428013,None
-118.586982400189598,34.262698209932161,1372,0,2706011900,Not Classified,Owned,General Services,RA-1,GERMAIN ST/GAZETTE AVE,LOS ANGELES,UNKNOWN,-118.5869824,34.26269821,12,846.9229996,None
-118.587438400299163,34.262968949293906,1373,0,2706011902,Not Classified,Owned,General Services,A2-1,GAZETTE AVE/GERMAIN ST,LOS ANGELES,UNKNOWN,-118.5874384,34.26296895,12,600.5648504,None
-118.520975599874234,34.25945523969574,1374,0,2733002900,Not Classified,Owned,General Services,RS-1,YARMOUTH AVE/HIAWATHA ST,LOS ANGELES,UNKNOWN,-118.5209756,34.25945524,12,28.75724979,None
-118.521025000028331,34.259455540389908,1375,0,2733002901,Not Classified,Owned,General Services,RS-1,YARMOUTH AVE/HIAWATHA ST,LOS ANGELES,UNKNOWN,-118.521025,34.25945554,12,60.84389982, 
-118.555144999795957,34.248186289933315,1376,0,2761009900,Not Classified,Owned,General Services,RA-1,LABRADOR ST/CALVIN AVE,LOS ANGELES,UNKNOWN,-118.555145,34.24818629,12,172.84815, 
-118.554974699879352,34.248167560486436,1377,0,2761009901,Not Classified,Owned,General Services,RA-1,LABRADOR ST/CALVIN AVE,LOS ANGELES,UNKNOWN,-118.5549747,34.24816756,12,168.7063796, 
-118.581045299729553,34.220963240511672,1378,0,2780023900,Not Classified,Owned,General Services,(T)(Q)RD3-1,SCHOENBORN ST/MASON AVE,LOS ANGELES,UNKNOWN,-118.5810453,34.22096324,3,300.0048998, 
-118.573246200094687,34.221434230223473,1379,0,2781019900,Not Classified,Owned,General Services,RA-1,COMMUNITY ST/KEOKUK AVE,LOS ANGELES,UNKNOWN,-118.5732462,34.22143423,3,90.00130017,None
-118.573246100381681,34.221351800528872,1380,0,2781019901,Not Classified,Owned,General Services,RA-1,COMMUNITY ST/KEOKUK AVE,LOS ANGELES,UNKNOWN,-118.5732461,34.2213518,3,90.15124998, 
-118.534884200146891,34.222775180141859,1381,0,2786020900,Not Classified,Owned,General Services,RS-1,CANBY AVE/CHASE ST,LOS ANGELES,UNKNOWN,-118.5348842,34.22277518,12,90.46800003,None
-118.333099700056835,33.976568939947789,1382,0,4006023900,OPLA,Owned,General Services,MR1-1VL,BRYHURST AVE/71ST ST,LOS ANGELES,LOS ANGELES,-118.3330997,33.97656894,8,72.39454998,None
-118.38517720022044,33.964197759762229,1383,0,4105017900,OPLA,Owned,General Services,R1-1,AIRPORT BLVD/83RD ST,Los Angeles,LOS ANGELES,-118.3851772,33.96419776,11,1220.610749,None
-118.385162500189139,33.964532769734966,1384,0,4105017901,OPLA,Owned,General Services,R1-1,AIRPORT BLVD/83RD ST,Los Angeles,LOS ANGELES,-118.3851625,33.96453277,11,609.6120002, 
-118.394425300374891,33.972737650167133,1385,0,4106002900,OPLA,Owned,General Services,R1-1,SEPULVEDA BLVD/76TH ST,Los Angeles,LOS ANGELES,-118.3944253,33.97273765,11,599.4577501, 
-118.394206100665798,33.973571099965334,1386,0,4106002901,OPLA,Owned,General Services,R1-1,SEPULVEDA BLVD/74TH ST,Los Angeles,LOS ANGELES,-118.3942061,33.9735711,11,509.9967998, 
-118.394137400207825,33.973828069844139,1387,0,4106002902,OPLA,Owned,General Services,R1-1,SEPULVEDA BLVD/74TH ST,Los Angeles,LOS ANGELES,-118.3941374,33.97382807,11,383.1546654, 
-118.392887399879868,33.963612659617951,1388,0,4107008905,OPLA,Owned,General Services,R1-1,83RD ST/TRUXTON AVE,Los Angeles,LOS ANGELES,-118.3928874,33.96361266,11,500.0504497,None
-118.388004499355191,33.963126190307811,1389,0,4107014905,OPLA,Owned,General Services,R1-1,LA TIJERA BLVD/83RD ST,Los Angeles,LOS ANGELES,-118.3880045,33.96312619,11,29.81820004, 
-118.387268400048455,33.963781000382568,1390,0,4107014909,OPLA,Owned,General Services,R1-1,LA TIJERA BLVD/83RD ST,Los Angeles,LOS ANGELES,-118.3872684,33.963781,11,499.9803501, 
-118.387508000497647,33.963606000307252,1391,0,4107014910,OPLA,Owned,General Services,R1-1,LA TIJERA BLVD/83RD ST,Los Angeles,LOS ANGELES,-118.387508,33.963606,11,1000.52005, 
-118.385674999838514,33.960680000133955,1392,0,4107018903,OPLA,Owned,General Services,R2-1,AIRPORT BLVD/MANCHESTER AVE,Los Angeles,LOS ANGELES,-118.385675,33.96068,11,500.0284999, 
-118.399284000285803,33.957392999867352,1393,0,4122011910,OPLA,Owned,General Services,R1-1,88TH ST/EL MONOR AVE,Los Angeles,LOS ANGELES,-118.399284,33.957393,11,502.2021999,None
-118.400685000226531,33.957396999620229,1394,0,4122011911,OPLA,Owned,General Services,R1-1,88TH ST/EL MONOR AVE,Los Angeles,LOS ANGELES,-118.400685,33.957397,11,572.7192508,None
-118.385696000653226,33.959170999649395,1395,0,4123015900,OPLA,Owned,General Services,R1-1,AIRPORT BLVD/INTERCEPTOR ST,Los Angeles,LOS ANGELES,-118.385696,33.959171,11,499.6565998, 
-118.370937100048366,33.949958350296633,1396,0,4128005900,Not Classified,Owned,Airports,LAX,95TH ST/GLASCOW - BLOCKER LOT,LOS ANGELES,LOS ANGELES,-118.3709371,33.94995835,11,2259.682342,None
-118.458564399908326,33.99147900000046,1397,0,4241028902,Commercial Improved,Owned,General Services,PF,685 VENICE BLVD,LOS ANGELES,LOS ANGELES,-118.4585644,33.991479,11,7237.201418,None
-118.443506200413751,34.008878929849793,1398,0,4247019900,Not Classified,Owned,General Services,R1-1,WADE ST/PALMS BLVD,LOS ANGELES,UNKNOWN,-118.4435062,34.00887893,11,24.46720006,None
-118.443465799582157,34.008854750015196,1399,0,4247019901,Not Classified,Owned,General Services,R1-1,WADE ST/PALMS BLVD,LOS ANGELES,UNKNOWN,-118.4434658,34.00885475,11,75.03960007,None
-118.420702100413735,34.037308030492028,1400,0,4255006901,Not Classified,Owned,General Services,R1-1,NORTHVALE RD/OVERLAND AVE,LOS ANGELES,UNKNOWN,-118.4207021,34.03730803,5,6968.805651, 
-118.419537499326594,34.037046760090249,1401,0,4255006902,Not Classified,Owned,General Services,R1-1,NORTHVALE RD/OVERLAND AVE,LOS ANGELES,UNKNOWN,-118.4195375,34.03704676,5,2178.388487, 
-118.417482700132197,34.034188819849213,1402,0,4255008900,Not Classified,Owned,General Services,R1-1,DUNLEER PL/COVENTRY PL,LOS ANGELES,UNKNOWN,-118.4174827,34.03418882,5,91.33789999,None
-118.438479699699357,34.034826979577296,1403,0,4260039900,OPLA,Owned,General Services,M2-1VL,PICO BLVD/SAWTELLE BLVD,Los Angeles,LOS ANGELES,-118.4384797,34.03482698,11,182.1932503, 
-118.439531999697891,34.041888399968272,1404,0,4323024901,Not Classified,Owned,General Services,[Q]P-1,SEPULVEDA BLVD/MISSISSIPPI AVE,LOS ANGELES,UNKNOWN,-118.439532,34.0418884,5,11211.779,None
-118.439643999850873,34.041707699571248,1405,0,4323024902,Public Facility,Leased,General Services,M2-1VL,2055 S SEPULVEDA BLVD,LOS ANGELES,LOS ANGELES,-118.439644,34.0417077,5,36876.61095, 
-118.420382499598603,34.100966380154112,1406,0,4355002900,Not Classified,Owned,General Services,RE20-1-H,FERRARI DR/SUMMITRIDGE DR,LOS ANGELES,BEVERLY HILLS,-118.4203825,34.10096638,5,337.7632945, 
-118.420315300225468,34.100417099630008,1407,0,4355002901,Not Classified,Owned,General Services,RE20-1-H,FERRARI DR/SUMMITRIDGE DR,LOS ANGELES,BEVERLY HILLS,-118.4203153,34.1004171,5,889.2377314, 
-118.430787600194606,34.089677090193845,1408,0,4358013900,Not Classified,Owned,General Services,RE15-1,ANGELO DR/MAYBROOK DR,LOS ANGELES,UNKNOWN,-118.4307876,34.08967709,5,558.6867886, 
-118.445850300248722,34.099268659889105,1409,0,4371011900,OPLA,Owned,General Services,RE15-1,10522 W SANDALL LN,Los Angeles,LOS ANGELES,-118.4458503,34.09926866,5,2885.07959, 
-118.423129999590003,34.111315970036593,1410,0,4384027900,Not Classified,Owned,General Services,RE40-1-H,FLORIAN PL/APRICOT LN,LOS ANGELES,UNKNOWN,-118.42313,34.11131597,5,41.43434985,None
-118.423410999797397,34.11178338978069,1411,0,4384027901,Not Classified,Owned,General Services,RE15-1-H,FLORIAN PL/APRICOT LN,LOS ANGELES,UNKNOWN,-118.423411,34.11178339,5,1338.534128, 
-118.484843999995903,34.055778999434899,1412,0,4405027900,OPLA,Owned,General Services,RA-1,CANYON VIEW DR/SUNSET BLVD,Los Angeles,LOS ANGELES,-118.484844,34.055779,11,705.9886995,None
-118.484866999562115,34.056255999863417,1413,0,4405027902,OPLA,Owned,General Services,RA-1,CANYON VIEW DR/SUNSET BLVD,Los Angeles,LOS ANGELES,-118.484867,34.056256,11,992.5357495,None
-118.482248799479436,34.076730959453428,1414,0,4494004901,Not Classified,Owned,General Services,RS-1,TRAVIS ST/BUNDY DR,LOS ANGELES,UNKNOWN,-118.4822488,34.07673096,11,54.54434994, 
-118.482190199678527,34.076741690339816,1415,0,4494004902,Not Classified,Owned,General Services,RS-1,TRAVIS ST/BUNDY DR,LOS ANGELES,UNKNOWN,-118.4821902,34.07674169,11,54.50564992, 
-118.330291899753647,33.990008000307853,1416,0,5006009900,Public Facility,Owned,LAFD,[Q]C2-1,5730 S CRENSHAW BLVD,LOS ANGELES,LOS ANGELES,-118.3302919,33.990008,8,7614.724249, 
-118.290697199233634,34.007794459993697,1417,0,5020033900,OPLA,Owned,General Services,R3-1,VERMONT AVE/MENLO AVE,Los Angeles,LOS ANGELES,-118.2906972,34.00779446,9,60.03689998,None
-118.290320099952098,34.007801630409041,1418,0,5020033901,OPLA,Owned,General Services,R3-1,VERMONT AVE/MENLO AVE,Los Angeles,LOS ANGELES,-118.2903201,34.00780163,9,333.5795499,None
-118.290558500252075,34.007817710039106,1419,0,5020033902,OPLA,Owned,General Services,R3-1,VERMONT AVE/41ST ST,Los Angeles,LOS ANGELES,-118.2905585,34.00781771,9,330.6221504, 
-118.2908359000118,34.007812440019428,1420,0,5020033903,OPLA,Owned,General Services,R3-1,VERMONT AVE/41ST ST,Los Angeles,LOS ANGELES,-118.2908359,34.00781244,9,330.2409002, 
-118.290175799974747,34.007824989918781,1421,0,5020033905,OPLA,Owned,General Services,R3-1,MENLO AVE/42ND ST,Los Angeles,LOS ANGELES,-118.2901758,34.00782499,9,322.7311504,None
-118.290769899889582,34.007793080122433,1422,0,5020033906,OPLA,Owned,General Services,R3-1,VERMONT AVE/41ST ST,Los Angeles,LOS ANGELES,-118.2907699,34.00779308,9,270.6048499,None
-118.325778300235541,34.011055579717365,1423,0,5034004900,OPLA,Owned,General Services,R1-1,MARTIN LUTHER KING JR BLVD/WELLAND AV,LOS ANGELES,LOS ANGELES,-118.3257783,34.01105558,10,5443.043037, 
-118.324805099592695,34.011052070228125,1424,0,5034007900,OPLA,Owned,General Services,R1-1,MARTIN LUTHER KING JR BLVD/HEPBURN AVE,LOS ANGELES,UNKNOWN,-118.3248051,34.01105207,10,5770.200956, 
-118.323834299248333,34.011046660416845,1425,0,5034008900,OPLA,Owned,General Services,R1-1,LATONA DR,LOS ANGELES,LOS ANGELES,-118.3238343,34.01104666,10,5837.07662,None
-118.289977699895033,34.011534900270156,1426,0,5037027921,Public Facility,Owned,RAP, ,3990 BILL ROBERTSON LN,LOS ANGELES,LOS ANGELES,-118.2899777,34.0115349,9,19881.3801, 
-118.360363299435278,34.025374479629804,1427,0,5047001900,Not Classified,Owned,General Services,[Q]CM-1VL,CLOVERDALE AVE/JEFFERSON BLVD,LOS ANGELES,LOS ANGELES,-118.3603633,34.02537448,10,104.4553503,None
-118.325254400066882,34.051769840045878,1428,0,5082026900,OPLA,Owned,General Services,R1-1-O,VICTORIA AVE/COUNTRY CLUB DR,Los Angeles,LOS ANGELES,-118.3252544,34.05176984,10,502.1364994,None
-118.32489889987805,34.055054219609367,1429,0,5090022900,OPLA,Owned,General Services,R1-1-O,OLYMPIC BLVD/VICTORIA AVE,Los Angeles,LOS ANGELES,-118.3248989,34.05505422,4,128.7476001,None
-118.244776500499114,33.998316410212816,1430,0,5106021900,OPLA,Owned,General Services,R2-1,640 MORGAN,Los Angeles,LOS ANGELES,-118.2447765,33.99831641,9,573.7258418,None
-118.273639199897943,34.007335679489692,1431,0,5113031900,Maintenance Yard,Owned,General Services, ,4206 S MAIN ST,LOS ANGELES,LOS ANGELES,-118.2736392,34.00733568,9,41997.9914,None
-118.268811999412492,34.011329100507972,1432,0,5121013901,OPLA,Owned,General Services,[Q]C2-1VL,271 E MARTIN LUTHER KING JR BLVD,Los Angeles,LOS ANGELES,-118.268812,34.0113291,9,2066.37765,None
-118.261304099456723,34.027567689995138,1433,0,5127017900,Not Classified,Owned,General Services,RD2-1,TRINITY ST/MAPLE AVE,LOS ANGELES,UNKNOWN,-118.2613041,34.02756769,9,59.99580037, 
-118.260615699793263,34.027267269214377,1434,0,5127017901,Not Classified,Owned,General Services,RD2-1,TRINITY ST/21ST ST,LOS ANGELES,UNKNOWN,-118.2606157,34.02726727,9,196.1854476, 
-118.242915200213545,34.056789460052237,1435,0,5161005905,OPLA,Owned,General Services,C4-2D,ALISO ST/N BROADWAY,Los Angeles,LOS ANGELES,-118.2429152,34.05678946,14,2579.312569,None
-118.230304299912106,34.025538839998987,1436,0,5167010900,Not Classified,Owned,General Services,M3-1-S-RIO,SANTA FE AVE/OLYMPIC BLVD,LOS ANGELES,UNKNOWN,-118.2303043,34.02553884,14,1398.2291, 
-118.223453000157107,34.038227999977678,1437,0,5171006900,OPLA,Owned,General Services,M2-1,622 ANDERSON,Los Angeles,LOS ANGELES,-118.223453,34.038228,14,2303.459001, 
-118.188642999928149,34.083281999708753,1438,0,5213024902,OPLA,Owned,General Services,RD1.5-1,ACROSS FROM 4477 HUNTINGTON DR,Los Angeles,LOS ANGELES,-118.188643,34.083282,14,249.0521995,None
-118.17952300043153,34.082999899625726,1439,0,5213037901,OPLA,Owned,General Services,R1-1,4827 CONVERSE ST,Los Angeles,LOS ANGELES,-118.179523,34.0829999,14,2100.0372, 
-118.200138899620839,34.091044910042839,1440,0,5304002901,OPLA,Owned,General Services,R1-1,Montecito Dr/Sinova St,Los Angeles,Los Angeles,-118.2001389,34.09104491,1,1667.381949,None
-118.182686200312261,34.111072050692407,1441,0,5312001900,Maintenance Yard,Owned,General Services, ,6740 Marmion Way,LOS ANGELES,LOS ANGELES,-118.1826862,34.11107205,14,283987.4139, 
-118.181365700200814,34.108523349947816,1442,0,5312028900,OPLA,Owned,General Services,R1-1,6308-13 Monterey Rd,Los Angeles,Los Angeles,-118.1813657,34.10852335,14,13.17255002,None
-118.181225100384111,34.108308950125149,1443,0,5312028901,OPLA,Owned,General Services,R1-1,6308-13 Monterey Rd,Los Angeles,Los Angeles,-118.1812251,34.10830895,14,2676.513806,None
-118.240282399812557,34.056083580041019,1444,0,5408007902,Not Classified,Owned,General Services,PF-1VL,N MAIN ST/ARCADIA ST,LOS ANGELES,UNKNOWN,-118.2402824,34.05608358,14,1371.386201, 
-118.254610999311481,34.079040999543047,1445,0,5419025901,OPLA,Owned,General Services,R2-1VL,Scott Ave/Laveta Ter,Los Angeles,Los Angeles,-118.254611,34.079041,13,324.0904001,None
-118.254740000081199,34.07878300060095,1446,0,5419025902,OPLA,Owned,General Services,R2-1VL,Scott Ave/Laveta Ter,Los Angeles,Los Angeles,-118.25474,34.078783,13,324.0264999, 
-118.281796999520722,34.08343490027962,1447,0,5427019900,Public Facility,Leased,General Services, ,3625 MARATHON ST,LOS ANGELES,Los Angeles,-118.281797,34.0834349,13,356793.7649,None
-118.247762000141904,34.102122000207963,1448,0,5442024902,OPLA,Owned,General Services,R2-1VL,RIVERSIDE DR/RIPPLE ST,Los Angeles,LOS ANGELES,-118.247762,34.102122,13,1342.2209, 
-118.373913299433028,34.115796410480975,1449,0,5565016900,OPLA,Owned,General Services,RE40-1-H,Willow Glen Rd/Laurel Canyon Blvd,Los Angeles,Los Angeles,-118.3739133,34.11579641,4,47.14500011,None
-118.377976799874673,34.109052050276958,1450,0,5567001900,Not Classified,Owned,General Services,R1-1,STANLEY HILLS PL/STANLEY HILLS DR,LOS ANGELES,UNKNOWN,-118.3779768,34.10905205,4,1047.4502,None
-118.37855889919561,34.108391180113578,1451,0,5567001901,Not Classified,Owned,General Services,R1-1,STANLEY HILLS PL/STANLEY HILLS DR,LOS ANGELES,UNKNOWN,-118.3785589,34.10839118,4,2336.79505,None
-118.37588509968505,34.113272439474201,1452,0,5567004906,OPLA,Owned,General Services,R1-1,STANLEY HILLS DR/LOOKOUT MOUNTAIN AVE,Los Angeles,LOS ANGELES,-118.3758851,34.11327244,4,1249.6761,None
-118.377277200016238,34.107505419933361,1453,0,5567014901,OPLA,Owned,General Services,R1-1,Appian Way,Los Angeles,Los Angeles,-118.3772772,34.10750542,4,69.71534996,None
-118.372536100355802,34.108491829849754,1454,0,5567021903,Not Classified,Owned,General Services,R1-1,UTICA DR/WEEPAH WAY,LOS ANGELES,UNKNOWN,-118.3725361,34.10849183,4,10820.4357,None
-118.37512250007741,34.123430870175774,1455,0,5570030900,OPLA,Owned,General Services,RE11-1,Mulholland Dr/Laurel Canyon Blvd,Los Angeles,Los Angeles,-118.3751225,34.12343087,4,1229.0126,None
-118.318068300002111,34.116736479710966,1456,0,5580016900,OPLA,Owned,General Services,R1-1,Lambert Dr/Hollyridge Dr,Los Angeles,Los Angeles,-118.3180683,34.11673648,4,257.9122505, 
-118.271825900191303,34.144814240161303,1457,0,5593012906,Not Classified,Owned,General Services,M3-1-RIO,ELECTRONICS PL/SAN FERNANDO RD,LOS ANGELES,UNKNOWN,-118.2718259,34.14481424,13,792.2460504, 
-118.201752400533593,34.132671280620649,1458,0,5689030900,OPLA,Owned,General Services,[Q]A1-1XLD,2188 Yosemite DR,LOS ANGELES,Los Angeles,-118.2017524,34.13267128,14,1940.064904,None
-118.202709000309966,34.131028000373618,1459,0,5689031908,OPLA,Owned,General Services,R1-1,OAK GROVE DR/TOWNSEND AVE,Los Angeles,LOS ANGELES,-118.202709,34.131028,14,465.3696502, 
-118.258171799825149,33.981955629440854,1460,0,6007013903,Not Classified,Owned,General Services,OS-1XL,GAGE AVE/CENTRAL AVE,LOS ANGELES,UNKNOWN,-118.2581718,33.98195563,9,24215.89254, 
-118.290481500259176,33.960395660098321,1461,0,6032013902,Commercial Improved,Leased,General Services, ,917 W Manchester Blvd,LOS ANGELES,Los Angeles,-118.2904815,33.96039566,8,16083.16545, 
-118.239824899516449,33.943462399508547,1462,0,6048028935,Public Facility,Owned,General Services, ,1827 E 103rd St,LOS ANGELES,Los Angeles,-118.2398249,33.9434624,15,15418.3042,None
-118.276093900310727,33.950128449863811,1463,0,6053008900,Not Classified,Owned,General Services,R2-1,95TH ST/MAIN ST,LOS ANGELES,UNKNOWN,-118.2760939,33.95012845,8,359.22075,None
-118.281275399937527,33.9468987705838,1464,0,6054031902,OPLA,Owned,General Services,R1-1,Flower St/98th St,LOS ANGELES,Los Angeles,-118.2812754,33.94689877,8,299.9996001,None
-118.280615999688038,33.946900849698352,1465,0,6054031903,OPLA,Owned,General Services,R1-1,Flower St/98th St,LOS ANGELES,Los Angeles,-118.280616,33.94690085,8,300.2370001,None
-118.253980500559621,33.937723299936465,1466,0,6070001900,Public Facility,Leased,General Services, ,1212 E 108th ST,LOS ANGELES,Los Angeles,-118.2539805,33.9377233,15,15339.28335, 
-118.247306000032324,33.935063999615565,1467,0,6070008900,OPLA,Owned,General Services,R2-1,1551 E 111th ST,Los Angeles,Los Angeles,-118.247306,33.935064,15,749.8297213, 
-118.262458999637133,33.933885840125257,1468,0,6071022902,Commercial Improved,Leased,General Services,M1-1,710 E 111TH PL,LOS ANGELES,Los Angeles,-118.262459,33.93388584,8,149408.1304,None
-118.283619000309201,33.878543999978099,1469,0,6121003901,OPLA,Owned,General Services,R1-1,169th St/Figueroa St,Los Angeles,Los Angeles,-118.283619,33.878544,15,13.5475988, 
-118.250026000796254,33.775944999723457,1470,0,7424017905,OPLA,Owned,General Services,M2-1VL-O,E St/Alameda St,Los Angeles,Los Angeles,-118.250026,33.775945,15,4.929450014, 
-118.321405899710427,33.729398589900683,1471,0,7562002900,Not Classified,Owned,General Services,R1-1XL,CUMBRE DR/MERMAID DR,LOS ANGELES,UNKNOWN,-118.3214059,33.72939859,15,700.3467017,None
-118.321939000424237,33.729454999762922,1472,0,7562002901,OPLA,Owned,General Services,R1-1XL,Cumbre Dr/Mermaid Dr,Los Angeles,Los Angeles,-118.321939,33.729455,15,1863.193433, 
-118.241085499964754,33.945935709573448,1473,0,0,Parking Facility,Owned,General Services, ,1773 E CENTURY BLVD,LOS ANGELES,LOS ANGELES,-118.2410855,33.94593571,15,0,None
-118.208640700098499,34.06491676011084,1474,0,5210025909,Not Classified,Owned,General Services,OS-1XL,HANCOCK ST/N MAIN ST,LOS ANGELES,LOS ANGELES,-118.2086407,34.06491676,14,3136.985001,None
-118.330004299623852,34.02531336017212,1475,0,5044008901,Commercial Improved,Owned,General Services,C2-1,3116 W Jefferson Blvd,LOS ANGELES,Los Angeles,-118.3300043,34.02531336,10,5715.19835,None
-118.627811399384683,34.219336199929835,1476,0,2005002901,Public Safety Facility,Owned,LAPD,A1-1,23001 ROSCOE BLVD,LOS ANGELES,Los Angeles,-118.6278114,34.2193362,12,216247.1252, 
-118.62807440004876,34.219017200140215,1477,0,2014008900,Public Safety Facility,Owned,LAFD,RS-1,23004 ROSCOE BLVD,LOS ANGELES,Los Angeles,-118.6280744,34.2190172,12,29039.47426, 
-118.62380369959358,34.185742099628428,1478,0,2039007900,Public Safety Facility,Owned,LAFD,RA-1VL,6345 FALLBROOK AVE,LOS ANGELES,WOODLAND HILLS,-118.6238037,34.1857421,3,15474.60445, 
-118.536426700016207,34.205409200321213,1479,0,2118014900,Public Safety Facility,Owned,LAFD,[Q]C2-1VL-CDO,7419 RESEDA BLVD,LOS ANGELES,Los Angeles,-118.5364267,34.2054092,3,11997.38515, 
-118.547483199567438,34.193358200447868,1480,0,0,Public Safety Facility,Owned,LAPD,[Q]PF-1XL-RIO,19020 VANOWEN ST,LOS ANGELES,Los Angeles,-118.5474832,34.1933582,3,0, 
-118.588566800178683,34.193945100066486,1481,0,2138029900,Public Safety Facility,Owned,LAFD,R1-1-RIO,6811 DE SOTO AVE,LOS ANGELES,Los Angeles,-118.5885668,34.1939451,3,28499.0027, 
-118.59162040020486,34.172908000257038,1482,0,2149016904,Public Safety Facility,Owned,LAFD,WC,21050 BURBANK BLVD,LOS ANGELES,Los Angeles,-118.5916204,34.172908,3,87125.82358, 
-118.549238399834778,34.172918500437376,1483,0,2163020900,Public Safety Facility,Owned,LAFD,C2-1VLD,19059 VENTURA BLVD,LOS ANGELES,Los Angeles,-118.5492384,34.1729185,3,21413.6871, 
-118.444724500093642,34.213126499860905,1484,0,2212028900,Public Safety Facility,Owned,LAFD,[Q]M2-1-CDO,14355 ARMINTA ST,LOS ANGELES,Los Angeles,-118.4447245,34.2131265,6,200784.873,None
-118.444664800754822,34.214629600017723,1485,0,2212028901,Public Safety Facility,Owned,LAPD,[Q]M2-1-CDO,7870 NOLLAN PL,LOS ANGELES,Los Angeles,-118.4446648,34.2146296,6,68017.92597, 
-118.447423100292582,34.211102140034299,1486,0,2215001912,Under Review,Owned,DOT, ,7702 VAN NUYS BLVD,LOS ANGELES,VAN NUYS,-118.4474231,34.21110214,2,128371.0297, 
-118.50996770007815,34.193387600213335,1487,0,2229008900,Public Safety Facility,Owned,LAFD,[Q]PF-1XL-RIO,6751 LOUISE AVE,LOS ANGELES,Los Angeles,-118.5099677,34.1933876,6,34209.9987, 
-118.447143600271716,34.184897900172381,1488,0,2240002900,Public Safety Facility,Owned,LAFD,[Q]C2-1L-CDO,14415 SYLVAN ST,LOS ANGELES,Los Angeles,-118.4471436,34.1848979,6,14018.08675,None
-118.444377600375333,34.181967000682292,1489,0,2240009900,Industrial Improved,Owned,General Services,[Q]PF-1-CDO,6165 TYRONE AVE,LOS ANGELES,LOS ANGELES,-118.4443776,34.181967,6,44953.82807,None
-118.446350999628564,34.184213699889909,1490,0,0,Public Safety Facility,Owned,LAPD,[Q]PF-1-CDO,6240 SYLMAR AVE,LOS ANGELES,Los Angeles,-118.446351,34.1842137,6,0, 
-118.500678100452518,34.161107400104122,1491,0,2259005904,Public Safety Facility,Owned,LAFD,R1-1,4960 BALBOA BLVD,LOS ANGELES,Los Angeles,-118.5006781,34.1611074,5,8911.872895,None
-118.440382200317075,34.131733199910641,1492,0,2272033901,Public Safety Facility,Owned,LAFD,[Q]PF-1XL,14145 MULHOLLAND DR,LOS ANGELES,LOS ANGELES,-118.4403822,34.1317332,4,18535.10242,None
-118.397068799710937,34.199207299915152,1493,0,2321005906,Public Safety Facility,Owned,LAFD,PF-1VL,7063 LAUREL CANYON BLVD,LOS ANGELES,NORTH HOLLYWOOD,-118.3970688,34.1992073,2,131291.6155, 
-118.407236300405884,34.204815399868565,1494,0,2324002900,Maintenance Yard,Owned,DOT, ,12544 SATICOY ST,LOS ANGELES,NORTH HOLLYWOOD,-118.4072363,34.2048154,2,156402.4431, 
-118.385788699604021,34.171678500231494,1495,0,2350001901,Public Safety Facility,Owned,LAPD,PF-1VL,11640 BURBANK BLVD,LOS ANGELES,Los Angeles,-118.3857887,34.1716785,2,116805.2809, 
-118.374136299914127,34.126162800544002,1496,0,2380030901,Public Safety Facility,Owned,LAFD,[Q]PF-1XL,8021 MULHOLLAND DR,LOS ANGELES,Los Angeles,-118.3741363,34.1261628,2,25251.1472, 
-118.370743600241227,34.148469399862861,1497,0,2423013900,Public Safety Facility,Owned,LAFD,PF-1XL-RIO,4305 VINELAND AVE,LOS ANGELES,Los Angeles,-118.3707436,34.1484694,4,33654.7397, 
-118.345691600091683,34.126728300405851,1498,0,2429018901,Public Safety Facility,Owned,LAFD,C2-1VL,3111 CAHUENGA BLVD W,LOS ANGELES,Los Angeles,-118.3456916,34.1267283,4,14290.39817,None
-118.447347499874908,34.309561799333999,1499,0,0,Public Safety Facility,Owned,LAFD,OS-1XL,14430 POLK ST,LOS ANGELES,Los Angeles,-118.4473475,34.3095618,7,0, 
-118.366932799482285,34.236294400639963,1500,0,2544012902,Public Safety Facility,Owned,LAFD,RA-1-K,9224 SUNLAND BLVD,LOS ANGELES,Los Angeles,-118.3669328,34.2362944,7,67674.67036, 
-118.471038399655413,34.290193699867309,1501,0,0,Industrial Improved,Owned,LAPD,PF-1,12001 BLUCHER AVE,LOS ANGELES,Los Angeles,-118.4710384,34.2901937,12,0, 
-118.470989400149904,34.289076900206588,1502,0,0,Public Safety Facility,Owned,LAPD,PF-1VL,11997 BLUCHER AVE,LOS ANGELES,Los Angeles,-118.4709894,34.2890769,12,0, 
-118.50127600024102,34.2897200000059,1503,0,2609027900,Public Safety Facility,Owned,LAFD,PF-1,12050 BALBOA BLVD,LOS ANGELES,Los Angeles,-118.501276,34.28972,12,24696.35143,None
-118.410472899831845,34.253106199656926,1504,0,2624001900,Public Safety Facility,Owned,LAPD,PF-1VL,12760 OSBORNE ST,LOS ANGELES,Los Angeles,-118.4104729,34.2531062,7,92285.59565, 
-118.451577300035197,34.242419899809455,1505,0,2650026900,Public Safety Facility,Owned,LAFD,(T)(Q)RD1.5-1,14630 PLUMMER ST,LOS ANGELES,Los Angeles,-118.4515773,34.2424199,6,16434.62525,None
-118.466768200460166,34.27252030017204,1506,0,2664007901,Public Safety Facility,Owned,LAFD,PF-1XL,15345 SAN FERNANDO MISSION BLVD,LOS ANGELES,Los Angeles,-118.4667682,34.2725203,7,22856.98369,None
-118.468152400108409,34.272943200231062,1507,0,2664007902,Public Safety Facility,Owned,LAPD,QC2-1,11121 SEPULVEDA BLVD,LOS ANGELES,Los Angeles,-118.4681524,34.2729432,7,149861.972,None
-118.501857200348383,34.254637999591402,1508,0,2685002902,Public Safety Facility,Owned,LAFD,C2-1VL,10124 BALBOA BLVD,LOS ANGELES,Los Angeles,-118.5018572,34.254638,12,85968.3,None
-118.559707699430859,34.277303999791854,1509,0,0,Public Safety Facility,Owned,LAFD,RD2-1,11351 TAMPA AVE,LOS ANGELES,Los Angeles,-118.5597077,34.277304,12,0, 
-118.569678699945612,34.281149300044163,1510,0,2701057900,Public Safety Facility,Owned,LAFD,PF-1XL,11641 CORBIN AVE,LOS ANGELES,Los Angeles,-118.5696787,34.2811493,12,41481.46083, 
-118.573660900159055,34.257627100198135,1511,0,2707023900,Public Safety Facility,Owned,LAFD,RA-1,20225 DEVONSHIRE ST,LOS ANGELES,Los Angeles,-118.5736609,34.2576271,12,16999.67161, 
-118.531718099606096,34.256998299987572,1512,0,2731020919,Public Safety Facility,Owned,LAPD,[Q]PF-1XL,10250 ETIWANDA AVE,LOS ANGELES,Los Angeles,-118.5317181,34.2569983,12,460015.2516, 
-118.603552399628626,34.247278100394709,1513,0,2746016900,Public Safety Facility,Owned,LAFD,MR2-1,21800 MARILLA ST,LOS ANGELES,Los Angeles,-118.6035524,34.2472781,12,15767.55705, 
-118.598758700015068,34.251577200110098,1514,0,2747010908,Public Facility,Owned,DOT, ,10038 OLD DEPOT PLAZA RD,LOS ANGELES,CHATSWORTH,-118.5987587,34.2515772,12,658913.0654, 
-118.536530300022974,34.249746199943267,1515,0,2763037900,Public Safety Facility,Owned,LAFD,[Q]PF-1XL,9861 RESEDA BLVD,LOS ANGELES,Los Angeles,-118.5365303,34.2497462,12,26013.12186, 
-118.528823600199885,34.22899270070991,1516,0,2769019903,Public Safety Facility,Owned,LAFD,[Q]CM-1VL,18143 PARTHENIA ST,LOS ANGELES,Los Angeles,-118.5288236,34.2289927,12,16955.04,None
-118.599616900131835,34.221382600348043,1517,0,2779022903,Public Safety Facility,Owned,LAPD,[Q]M2-1,21501 SCHOENBORN ST,LOS ANGELES,Los Angeles,-118.5996169,34.2213826,3,284396.7456,None
-118.571438399874211,34.221638600521985,1518,0,2781017900,Public Safety Facility,Owned,LAFD,OS-1XL,8349 WINNETKA AVE,LOS ANGELES,Los Angeles,-118.5714384,34.2216386,3,710520.9157, 
-118.405162999509912,33.960141999540127,1519,0,4112029900,Public Safety Facility,Surplus-Undeclared,General Services,R1-1,6621 WEST MANCHESTER AVE,LOS ANGELES,Los Angeles,-118.405163,33.960142,11,19507.28975, 
-118.389670999971386,33.946124999610753,1520,0,4124030901,Commercial Improved,Owned,General Services,C2-2,6033 W CENTURY BLVD,LOS ANGELES,LOS ANGELES,-118.389671,33.946125,11,68470.2204,None
-118.389662999575464,33.946914000283073,1521,0,4124030902,Commercial Improved,Owned,General Services,C2-2,6053 W CENTURY BLVD,LOS ANGELES,LOS ANGELES,-118.389663,33.946914,11,71405.5442,None
-118.379658299661159,33.961224200090932,1522,0,4125001901,Public Safety Facility,Owned,LAPD,PF-1,5651 W MANCHESTER AVE,LOS ANGELES,Los Angeles,-118.3796583,33.9612242,11,591829.6623, 
-118.419492299694753,33.940507300364494,1523,0,4129026903,Public Safety Facility,Owned,LAFD,LAX,7250 WORLD WY,LOS ANGELES,Los Angeles,-118.4194923,33.9405073,11,16393711.77, 
-118.381186599860754,33.945188999869224,1524,0,4129028900,Public Safety Facility,Owned,LAFD,PF-1XL,10010 INTERNATIONAL RD,LOS ANGELES,Los Angeles,-118.3811866,33.945189,11,26845934.39, 
-118.428311700439437,34.005924699721113,1525,0,4214022904,Public Safety Facility,Owned,LAFD,C2-1,11970 VENICE BLVD,LOS ANGELES,Los Angeles,-118.4283117,34.0059247,11,11054.27443,None
-118.419819999720474,33.991611000662502,1526,0,4221009902,Public Safety Facility,Owned,LAPD,PF-1XL,12312 CULVER BLVD,LOS ANGELES,Los Angeles,-118.41982,33.991611,11,196454.9046, 
-118.459188300534407,33.991347700747205,1527,0,4241028900,Public Safety Facility,Owned,LAFD,PF,1930 SHELL AVE,LOS ANGELES,Los Angeles,-118.4591883,33.9913477,11,25491.19658, 
-118.444457399518626,34.036608800439218,1528,0,4260005900,Public Safety Facility,Owned,LAFD,R2-1,11505 W OLYMPIC BLVD,LOS ANGELES,Los Angeles,-118.4444574,34.0366088,11,1450, 
-118.44511410033067,34.037189499514042,1529,0,0,Public Safety Facility,Owned,LAFD,R2-1,2117 BUTLER AVE,LOS ANGELES,LOS ANGELES,-118.4451141,34.0371895,11,8147.8,None
-118.450763400336626,34.0437608002727,1530,0,4261012903,Public Safety Facility,Owned,LAPD,[Q]PF-1XL,1663 BUTLER AVE,LOS ANGELES,Los Angeles,-118.4507634,34.0437608,11,48938.4286, 
-118.383950099745718,34.050707300279761,1531,0,4303002900,Public Safety Facility,Owned,LAFD,C2-1-O,1556 S ROBERTSON BLVD,LOS ANGELES,Los Angeles,-118.3839501,34.0507073,5,11187.69658, 
-118.405531200080247,34.022976400013896,1532,0,4314007900,Public Safety Facility,Owned,LAFD,C2-1,3690 MOTOR AVE,LOS ANGELES,Los Angeles,-118.4055312,34.0229764,5,21506.58141,None
-118.44894680021963,34.059790699729071,1533,0,4363026902,Public Safety Facility,Owned,LAFD,PF-1XL,1090 VETERAN AVE,LOS ANGELES,Los Angeles,-118.4489468,34.0597907,5,14099.09305, 
-118.406239399510923,34.127009499954198,1534,0,4387002900,Public Safety Facility,Owned,LAFD,[Q]PF-1XL,12520 MULHOLLAND DR,LOS ANGELES,Los Angeles,-118.4062394,34.1270095,4,548165.178, 
-118.479578799842528,34.058532800080734,1535,0,4403001900,Public Safety Facility,Owned,LAFD,RS-1,12229 SUNSET BLVD,LOS ANGELES,Los Angeles,-118.4795788,34.0585328,11,19843.02995, 
-118.522471300212175,34.045069700358674,1536,0,4423028900,Public Safety Facility,Owned,LAFD,R1-1,15045 SUNSET BLVD,LOS ANGELES,Los Angeles,-118.5224713,34.0450697,11,23599.1692, 
-118.492114600087888,34.130729499723572,1537,0,4490007900,Public Safety Facility,Owned,LAFD,RE40-1-H,16500 MULHOLLAND DR,LOS ANGELES,Los Angeles,-118.4921146,34.1307295,11,87734.36502, 
-118.311525800617616,33.989218699933666,1538,0,5005023900,Public Safety Facility,Owned,LAFD,[Q]C2-1,1909 W SLAUSON AVE,LOS ANGELES,Los Angeles,-118.3115258,33.9892187,8,26783.0482, 
-118.286816399951107,34.004049699520351,1539,0,5019009900,Public Safety Facility,Owned,LAFD,[Q]C2-1VL,4370 S HOOVER ST,LOS ANGELES,Los Angeles,-118.2868164,34.0040497,9,16392.08442, 
-118.30505850010384,34.010519800481312,1540,0,5021005902,Public Safety Facility,Owned,LAPD,C2-1,1546 W MARTIN LUTHER KING JR BLVD,LOS ANGELES,Los Angeles,-118.3050585,34.0105198,8,74675.60486, 
-118.345505199670242,34.017606700316328,1541,0,5045001904,Public Safety Facility,Owned,LAFD,C2-1,4470 COLISEUM ST,LOS ANGELES,Los Angeles,-118.3455052,34.0176067,10,17701.7712, 
